state,county,fips,lat,longitude
AL,Autauga County,1001,32.52099991,86.66600037
AL,Baldwin County,1003,30.88199997,87.72000122
AL,Barbour County,1005,31.87899971,85.39900208
AL,Bibb County,1007,33.04199982,87.14700317
AL,Blount County,1009,34.01100159,86.6309967
AL,Bullock County,1011,32.0909996,85.70300293
AL,Butler County,1013,31.74200058,86.67700195
AL,Calhoun County,1015,33.76399994,85.84100342
AL,Chambers County,1017,32.91600037,85.36499786
AL,Cherokee County,1019,34.23400116,85.6230011
AL,Chilton County,1021,32.85900116,86.69400024
AL,Choctaw County,1023,32.00500107,88.2009964
AL,Clarke County,1025,31.59300041,87.79399872
AL,Clay County,1027,33.29499817,85.90899658
AL,Cleburne County,1029,33.72399902,85.57700348
AL,Coffee County,1031,31.40399933,85.98999786
AL,Colbert County,1033,34.72700119,87.78299713
AL,Conecuh County,1035,31.47299957,87.06099701
AL,Coosa County,1037,32.9280014,86.25900269
AL,Covington County,1039,31.26099968,86.44200134
AL,Crenshaw County,1041,31.74799919,86.3219986
AL,Cullman County,1043,34.08499908,86.78600311
AL,Dale County,1045,31.40999985,85.60600281
AL,Dallas County,1047,32.38899994,87.14099884
AL,DeKalb County,1049,34.5320015,85.81800079
AL,Elmore County,1051,32.58399963,86.15000153
AL,Escambia County,1053,31.12899971,87.15299988
AL,Etowah County,1055,34.02199936,86.03500366
AL,Fayette County,1057,33.72399902,87.68599701
AL,Franklin County,1059,34.44100189,87.85199738
AL,Geneva County,1061,31.09399986,85.84100342
AL,Greene County,1063,32.83599854,87.94300079
AL,Hale County,1065,32.74499893,87.61699677
AL,Henry County,1067,31.5359993,85.23300171
AL,Houston County,1069,31.15699959,85.35399628
AL,Jackson County,1071,34.73300171,85.95500183
AL,Jefferson County,1073,33.52999878,86.88899994
AL,Lamar County,1075,33.79299927,88.11000061
AL,Lauderdale County,1077,34.88199997,87.70800018
AL,Lawrence County,1079,34.54899979,87.31900024
AL,Lee County,1081,32.57799911,85.34799957
AL,Limestone County,1083,34.77299881,87.02100372
AL,Lowndes County,1085,32.15399933,86.65399933
AL,Macon County,1087,32.41199875,85.72599792
AL,Madison County,1089,34.76699829,86.5510025
AL,Marengo County,1091,32.26300049,87.77100372
AL,Marion County,1093,34.11999893,87.91999817
AL,Marshall County,1095,34.34899902,86.3219986
AL,Mobile County,1097,30.6760006,88.19499969
AL,Monroe County,1099,31.5359993,87.33599854
AL,Montgomery County,1101,32.21699905,86.21299744
AL,Morgan County,1103,34.49200058,86.83200073
AL,Perry County,1105,32.59000015,87.27300262
AL,Pickens County,1107,33.25999832,88.08699799
AL,Pike County,1109,31.83399963,85.92700195
AL,Randolph County,1111,33.29999924,85.44499969
AL,Russell County,1113,32.2859993,85.1760025
AL,St. Clair County,1115,33.6609993,86.3219986
AL,Shelby County,1117,33.28300095,86.69400024
AL,Sumter County,1119,32.65299988,88.13800049
AL,Talladega County,1121,33.39199829,86.14399719
AL,Tallapoosa County,1123,32.80199814,85.80000305
AL,Tuscaloosa County,1125,33.29999924,87.4509964
AL,Walker County,1127,33.75899887,87.29599762
AL,Washington County,1129,31.40399933,88.20700073
AL,Wilcox County,1131,32.04600143,87.26200104
AL,Winston County,1133,34.14799881,87.37000275
AZ,Apache County,4001,35.28300095,109.5210037
AZ,Cochise County,4003,31.87899971,109.75
AZ,Coconino County,4005,35.63199997,112.0419998
AZ,Gila County,4007,33.82699966,110.776001
AZ,Graham County,4009,33.03699875,109.7850037
AZ,Greenlee County,4011,33.09999847,109.2689972
AZ,La Paz County,4012,33.18000031,114.0240021
AZ,Maricopa County,4013,33.25400162,112.1849976
AZ,Mohave County,4015,35.64899826,113.5830002
AZ,Navajo County,4017,35.28300095,110.322998
AZ,Pima County,4019,31.97100067,111.8929977
AZ,Pinal County,4021,32.98500061,111.3259964
AZ,Santa Cruz County,4023,31.53000069,110.9079971
AZ,Yavapai County,4025,34.72100067,112.4140015
AZ,Yuma County,4027,33.18000031,114.0240021
AR,Arkansas County,5001,34.26900101,91.3809967
AR,Ashley County,5003,33.20299911,91.7990036
AR,Baxter County,5005,36.24000168,92.34400177
AR,Benton County,5007,36.3030014,94.23999786
AR,Boone County,5009,36.30799866,93.07700348
AR,Bradley County,5011,33.43799973,92.16600037
AR,Calhoun County,5013,33.55199814,92.54399872
AR,Carroll County,5015,36.30799866,93.58100128
AR,Chicot County,5017,33.28300095,91.31199646
AR,Clark County,5019,34.05699921,93.18000031
AR,Clay County,5021,36.34799957,90.49900055
AR,Cleburne County,5023,35.53499985,92.02300262
AR,Cleveland County,5025,33.88499832,92.14299774
AR,Columbia County,5027,33.23699951,93.23200226
AR,Conway County,5029,35.26599884,92.76200104
AR,Craighead County,5031,35.84999847,90.65899658
AR,Crawford County,5033,35.56900024,94.19999695
AR,Crittenden County,5035,35.13399887,90.29799652
AR,Cross County,5037,35.29399872,90.77400208
AR,Dallas County,5039,33.97600174,92.61299896
AR,Desha County,5041,33.8390007,91.25499725
AR,Drew County,5043,33.5929985,91.71900177
AR,Faulkner County,5045,35.16199875,92.33200073
AR,Franklin County,5047,35.48899841,93.88500214
AR,Fulton County,5049,36.3769989,91.80500031
AR,Garland County,5051,34.58399963,93.09999847
AR,Grant County,5053,34.27399826,92.44100189
AR,Greene County,5055,36.11899948,90.52200317
AR,Hempstead County,5057,33.74200058,93.70700073
AR,Hot Spring County,5059,34.32600021,93.03700256
AR,Howard County,5061,34.05099869,94.03399658
AR,Independence County,5063,35.73500061,91.52400208
AR,Izard County,5065,36.06200027,91.94799805
AR,Jackson County,5067,35.62099838,91.30699921
AR,Jefferson County,5069,34.27999878,91.83899689
AR,Johnson County,5071,35.54600143,93.43800354
AR,Lafayette County,5073,33.24900055,93.58699799
AR,Lawrence County,5075,36.06800079,91.08300018
AR,Lee County,5077,34.77299881,90.75700378
AR,Lincoln County,5079,33.93099976,91.69599915
AR,Little River County,5081,33.74200058,94.15399933
AR,Logan County,5083,35.1969986,93.70700073
AR,Lonoke County,5085,34.77299881,91.89700317
AR,Madison County,5087,36.03300095,93.71900177
AR,Marion County,5089,36.27999878,92.65299988
AR,Miller County,5091,33.31200027,93.8789978
AR,Mississippi County,5093,35.7179985,89.96600342
AR,Monroe County,5095,34.66999817,91.21499634
AR,Montgomery County,5097,34.54399872,93.66100311
AR,Nevada County,5099,33.70100021,93.29499817
AR,Newton County,5101,35.92399979,93.23200226
AR,Ouachita County,5103,33.5870018,92.84200287
AR,Perry County,5105,34.94499969,92.91699982
AR,Phillips County,5107,34.38299942,90.84300232
AR,Pike County,5109,34.14799881,93.65599823
AR,Poinsett County,5111,35.57500076,90.66500092
AR,Polk County,5113,34.45800018,94.19999695
AR,Pope County,5115,35.44900131,93.05400085
AR,Prairie County,5117,34.7840004,91.58699799
AR,Pulaski County,5119,34.75,92.38400269
AR,Randolph County,5121,36.32600021,91.08899689
AR,St. Francis County,5123,35.00799942,90.77999878
AR,Saline County,5125,34.63499832,92.65899658
AR,Scott County,5127,34.88199997,94.08000183
AR,Searcy County,5129,35.91899872,92.68199921
AR,Sebastian County,5131,35.19100189,94.23999786
AR,Sevier County,5133,33.97100067,94.21700287
AR,Sharp County,5135,36.19400024,91.48400116
AR,Stone County,5137,35.91899872,92.12599945
AR,Union County,5139,33.19100189,92.52700043
AR,Van Buren County,5141,35.57500076,92.54399872
AR,Washington County,5143,35.99900055,94.21700287
AR,White County,5145,35.2879982,91.73100281
AR,Woodruff County,5147,35.17399979,91.25499725
AR,Yell County,5149,35.03099823,93.3010025
CA,Alameda County,6001,37.68299866,121.8909988
CA,Alpine County,6003,38.62900162,119.8280029
CA,Amador County,6005,38.46300125,120.5500031
CA,Butte County,6007,39.72299957,121.5589981
CA,Calaveras County,6009,38.16999817,120.5049973
CA,Colusa County,6011,39.15599823,122.2860031
CA,Contra Costa County,6013,37.9129982,121.9369965
CA,Del Norte County,6015,41.68799973,123.8679962
CA,El Dorado County,6017,38.78900146,120.5220032
CA,Fresno County,6019,36.74399948,119.6389999
CA,Glenn County,6021,39.5909996,122.413002
CA,Humboldt County,6023,40.73199844,123.7360001
CA,Imperial County,6025,33.02500153,115.3649979
CA,Inyo County,6027,36.6230011,117.2040024
CA,Kern County,6029,35.30599976,118.9120026
CA,Kings County,6031,36.13600159,119.9260025
CA,Lake County,6033,39.12200165,122.612999
CA,Lassen County,6035,40.44499969,120.6650009
CA,Los Angeles County,6037,33.81000137,118.2990036
CA,Madera County,6039,37.33399963,119.7829971
CA,Marin County,6041,38.2159996,122.7450027
CA,Mariposa County,6043,37.50600052,119.8460007
CA,Mendocino County,6045,39.37900162,123.4209976
CA,Merced County,6047,37.18500137,120.6360016
CA,Modoc County,6049,41.5909996,120.7220001
CA,Mono County,6051,38.09000015,118.7340012
CA,Monterey County,6053,36.3429985,121.0090027
CA,Napa County,6055,38.50899887,122.3669968
CA,Nevada County,6057,39.22999954,120.6419983
CA,Orange County,6059,33.66699982,117.8119965
CA,Placer County,6061,39.01300049,120.7389984
CA,Plumas County,6063,40.02099991,120.8199997
CA,Riverside County,6065,33.75299835,116.0530014
CA,Sacramento County,6067,38.40000153,121.4440002
CA,San Benito County,6069,36.61199951,121.1230011
CA,San Bernardino County,6071,34.83599854,115.9609985
CA,San Diego County,6073,33.06000137,116.8379974
CA,San Francisco County,6075,37.70600128,122.5039978
CA,San Joaquin County,6077,37.88999939,121.2490005
CA,San Luis Obispo County,6079,35.34600067,120.4069977
CA,San Mateo County,6081,37.40800095,122.2979965
CA,Santa Barbara County,6083,34.74399948,120.0459976
CA,Santa Clara County,6085,37.19100189,121.6790009
CA,Santa Cruz County,6087,37.06999969,121.9369965
CA,Shasta County,6089,40.73699951,122.1949997
CA,Sierra County,6091,39.55699921,120.5100021
CA,Siskiyou County,6093,41.5909996,122.5500031
CA,Solano County,6095,38.28499985,122
CA,Sonoma County,6097,38.45700073,122.9449997
CA,Stanislaus County,6099,37.60300064,120.9290009
CA,Sutter County,6101,39.01800156,121.6620026
CA,Tehama County,6103,40.12400055,122.2460022
CA,Trinity County,6105,40.58300018,123.0199966
CA,Tulare County,6107,36.26800156,118.7860031
CA,Tuolumne County,6109,38.03300095,119.9599991
CA,Ventura County,6111,34.47499847,119.1070023
CA,Yolo County,6113,38.61700058,121.9940033
CA,Yuba County,6115,39.3219986,121.3180008
CO,Adams County,8001,39.87200165,104.3759995
CO,Alamosa County,8003,37.55199814,105.7450027
CO,Arapahoe County,8005,39.65399933,104.3820038
CO,Archuleta County,8007,37.20800018,106.9769974
CO,Baca County,8009,37.31700134,102.5650024
CO,Bent County,8011,37.95299911,103.0749969
CO,Boulder County,8013,40.09000015,105.3730011
CO,Chaffee County,8015,38.73799896,106.2839966
CO,Cheyenne County,8017,38.82899857,102.6050034
CO,Clear Creek County,8019,39.70600128,105.6589966
CO,Conejos County,8021,37.19599915,106.197998
CO,Costilla County,8023,37.2879982,105.4589996
CO,Crowley County,8025,38.32500076,103.7799988
CO,Custer County,8027,38.07899857,105.4240036
CO,Delta County,8029,38.94400024,107.9400024
CO,Denver County,8031,39.7859993,105.0810013
CO,Dolores County,8033,37.68299866,108.4499969
CO,Douglas County,8035,39.34500122,104.9950027
CO,Eagle County,8037,39.64300156,106.6620026
CO,Elbert County,8039,39.21900177,104.1869965
CO,El Paso County,8041,38.82400131,104.5419998
CO,Fremont County,8043,38.47999954,105.4759979
CO,Garfield County,8045,39.72900009,108.0429993
CO,Gilpin County,8047,39.83800125,105.5449982
CO,Grand County,8049,40.09000015,106.1520004
CO,Gunnison County,8051,38.70299911,106.9430008
CO,Hinsdale County,8053,37.78699875,107.2860031
CO,Huerfano County,8055,37.60300064,104.9199982
CO,Jackson County,8057,40.68000031,106.3580017
CO,Jefferson County,8059,39.52299881,105.223999
CO,Kiowa County,8061,38.43999863,102.7720032
CO,Kit Carson County,8063,39.30500031,102.6050034
CO,Lake County,8065,39.21900177,106.3580017
CO,La Plata County,8067,37.31700134,107.9280014
CO,Larimer County,8069,40.62799835,105.5680008
CO,Las Animas County,8071,37.40800095,104.1119995
CO,Lincoln County,8073,39.04100037,103.6019974
CO,Logan County,8075,40.72000122,103.1149979
CO,Mesa County,8077,38.93299866,108.2259979
CO,Mineral County,8079,37.6780014,106.9079971
CO,Moffat County,8081,40.61100006,108.185997
CO,Montezuma County,8083,37.31700134,108.5070038
CO,Montrose County,8085,38.4109993,108.2779999
CO,Morgan County,8087,40.26200104,103.8089981
CO,Otero County,8089,37.95299911,103.7279968
CO,Ouray County,8091,38.10200119,107.7679977
CO,Park County,8093,39.1269989,105.762001
CO,Phillips County,8095,40.59400177,102.3590012
CO,Pitkin County,8097,39.18500137,106.9309998
CO,Prowers County,8099,37.95800018,102.3929977
CO,Pueblo County,8101,38.13000107,104.5530014
CO,Rio Blanco County,8103,39.94100189,108.0429993
CO,Rio Grande County,8105,37.61500168,106.375
CO,Routt County,8107,40.4620018,107.0339966
CO,Saguache County,8109,38.09600067,106.2149963
CO,San Juan County,8111,37.80400085,107.7279968
CO,San Miguel County,8113,37.9640007,108.387001
CO,Sedgwick County,8115,40.875,102.3529968
CO,Summit County,8117,39.64899826,106.1289978
CO,Teller County,8119,38.88700104,105.1380005
CO,Washington County,8121,40.00400162,103.2409973
CO,Weld County,8123,40.5019989,104.3130035
CO,Yuma County,8125,40.00400162,102.4280014
CT,Fairfield County,9001,41.32699966,73.38400269
CT,Hartford County,9003,41.80899811,72.70800018
CT,Litchfield County,9005,41.75699997,73.25299835
CT,Middlesex County,9007,41.44200134,72.53099823
CT,New Haven County,9009,41.41899872,72.9260025
CT,New London County,9011,41.56800079,72.12999725
CT,Tolland County,9013,41.81999969,72.30699921
CT,Windham County,9015,41.83200073,72.01499939
DE,Kent County,10001,39.09899902,75.53900146
DE,New Castle County,10003,39.56800079,75.60199738
DE,Sussex County,10005,38.69800186,75.38400269
DC,District of Columbia,11001,38.89799881,77.06300354
FL,Alachua County,12001,29.70199966,82.35700226
FL,Baker County,12003,30.36100006,82.2539978
FL,Bay County,12005,30.24600029,85.69200134
FL,Bradford County,12007,29.93099976,82.23699951
FL,Brevard County,12009,28.30400085,80.71800232
FL,Broward County,12011,26.15600014,80.47799683
FL,Calhoun County,12013,30.40099907,85.15899658
FL,Charlotte County,12015,26.89999962,81.96700287
FL,Citrus County,12017,28.85400009,82.51200104
FL,Clay County,12019,29.95400047,81.81300354
FL,Collier County,12021,26.1609993,81.36000061
FL,Columbia County,12023,30.21199989,82.63200378
FL,MIAMI-DADE COUNTY,12025,25.57699966,80.49500275
FL,DESOTO COUNTY,12027,27.18700027,81.81300354
FL,DIXIE COUNTY,12029,29.5529995,83.17099762
FL,DUVAL COUNTY,12031,30.32699966,81.71499634
FL,ESCAMBIA COUNTY,12033,30.66500092,87.38200378
FL,FLAGLER COUNTY,12035,29.5359993,81.31400299
FL,FRANKLIN COUNTY,12037,29.79999924,84.79199982
FL,GADSDEN COUNTY,12039,30.54999924,84.60900116
FL,GILCHRIST COUNTY,12041,29.74799919,82.80400085
FL,GLADES COUNTY,12043,26.98600006,81.22299957
FL,GULF COUNTY,12045,29.94300079,85.20500183
FL,HAMILTON COUNTY,12047,30.48699951,82.99900055
FL,HARDEE COUNTY,12049,27.49099922,81.80699921
FL,HENDRY COUNTY,12051,26.5170002,81.22299957
FL,HERNANDO COUNTY,12053,28.56200027,82.36799622
FL,HIGHLANDS COUNTY,12055,27.34199905,81.25099945
FL,HILLSBOROUGH COUNTY,12057,27.87400055,82.40899658
FL,HOLMES COUNTY,12059,30.84799957,85.76599884
FL,INDIAN RIVER COUNTY,12061,27.70800018,80.59799957
FL,JACKSON COUNTY,12063,30.78499985,85.23300171
FL,JEFFERSON COUNTY,12065,30.37800026,83.84100342
FL,LAFAYETTE COUNTY,12067,30.04000092,83.125
FL,LAKE COUNTY,12069,28.80800056,81.66400146
FL,LEE COUNTY,12071,26.54500008,81.92199707
FL,LEON COUNTY,12073,30.4810009,84.36199951
FL,LEVY COUNTY,12075,29.29000092,82.78700256
FL,LIBERTY COUNTY,12077,30.28700066,84.83200073
FL,MADISON COUNTY,12079,30.45299911,83.49700165
FL,MANATEE COUNTY,12081,27.4279995,82.38600159
FL,MARION COUNTY,12083,29.22100067,82.08799744
FL,MARTIN COUNTY,12085,27.11199951,80.37999725
FL,Monroe County,12087,25.17000008,81.10800171
FL,Nassau County,12089,30.54999924,81.7440033
FL,Okaloosa County,12091,30.69300079,86.59100342
FL,Okeechobee County,12093,27.36400032,80.91300201
FL,Orange County,12095,28.56800079,81.26300049
FL,Osceola County,12097,27.99500084,81.26300049
FL,Palm Beach County,12099,26.64299965,80.47799683
FL,Pasco County,12101,28.32699966,82.4260025
FL,Pinellas County,12103,27.91500092,82.71199799
FL,Polk County,12105,27.99500084,81.62400055
FL,Putnam County,12107,29.58200073,81.7440033
FL,St. Johns County,12109,29.93700027,81.44599915
FL,St. Lucie County,12111,27.38199997,80.43800354
FL,Santa Rosa County,12113,30.69300079,87.05000305
FL,Sarasota County,12115,27.16399956,82.31099701
FL,Seminole County,12117,28.74500084,81.22299957
FL,Sumter County,12119,28.63599968,82.13400269
FL,Suwannee County,12121,30.13800049,83.02200317
FL,Taylor County,12123,29.9829998,83.65799713
FL,Union County,12125,30.0340004,82.33399963
FL,Volusia County,12127,29.02000046,81.20500183
FL,Wakulla County,12129,30.13199997,84.39700317
FL,Walton County,12131,30.62999916,86.1210022
FL,Washington County,12133,30.60700035,85.71499634
GA,Appling County,13001,31.71899986,82.28299713
GA,Atkinson County,13003,31.3010006,82.88400269
GA,Bacon County,13005,31.56399918,82.4260025
GA,Baker County,13007,31.26099968,84.39099884
GA,Baldwin County,13009,33.05400085,83.24500275
GA,Banks County,13011,34.3429985,83.48600006
GA,Barrow County,13013,34.01699829,83.67500305
GA,Bartow County,13015,34.24599838,84.84899902
GA,Ben Hill County,13017,31.75900078,83.23899841
GA,Berrien County,13019,31.24900055,83.23899841
GA,Bibb County,13021,32.80799866,83.70300293
GA,Bleckley County,13023,32.42900085,83.31999969
GA,Brantley County,13025,31.19199944,82.00800323
GA,Brooks County,13027,30.85400009,83.52600098
GA,Bryan County,13029,32,81.48600006
GA,Bulloch County,13031,32.40100098,81.73200226
GA,Burke County,13033,33.03699875,81.92700195
GA,Butts County,13035,33.31200027,83.97299957
GA,Calhoun County,13037,31.53000069,84.62599945
GA,Camden County,13039,30.94499969,81.71499634
GA,Candler County,13043,32.40100098,82.09899902
GA,Carroll County,13045,33.62099838,85.07299805
GA,Catoosa County,13047,34.87599945,85.12400055
GA,Charlton County,13049,30.6989994,82.0530014
GA,Chatham County,13051,32.02299881,81.1190033
GA,Chattahoochee County,13053,32.38399887,84.80400085
GA,Chattooga County,13055,34.43500137,85.31900024
GA,Cherokee County,13057,34.24000168,84.45999908
GA,Clarke County,13059,33.94800186,83.40000153
GA,Clay County,13061,31.63299942,84.98100281
GA,Clayton County,13063,33.50099945,84.35099792
GA,Clinch County,13065,30.88199997,82.69499969
GA,Cobb County,13067,33.9129982,84.58000183
GA,Coffee County,13069,31.58699989,82.8730011
GA,Colquitt County,13071,31.18600082,83.75499725
GA,Columbia County,13073,33.52399826,82.22499847
GA,Cook County,13075,31.18600082,83.43399811
GA,Coweta County,13077,33.35200119,84.75800323
GA,Crawford County,13079,32.69300079,83.95600128
GA,Crisp County,13081,31.91399956,83.78399658
GA,Dade County,13083,34.80699921,85.48500061
GA,Dawson County,13085,34.47499847,84.15000153
GA,Decatur County,13087,30.88199997,84.62000275
GA,DeKalb County,13089,33.79899979,84.18499756
GA,Dodge County,13091,32.15999985,83.10199738
GA,Dooly County,13093,32.15999985,83.81800079
GA,Dougherty County,13095,31.54100037,84.21900177
GA,Douglas County,13097,33.68999863,84.74099731
GA,Early County,13099,31.29500008,84.86100006
GA,Echols County,13101,30.72800064,82.86100006
GA,Effingham County,13103,32.34899902,81.33100128
GA,Elbert County,13105,34.11999893,82.82099915
GA,Emanuel County,13107,32.57799911,82.32299805
GA,Evans County,13109,32.15999985,81.87000275
GA,Fannin County,13111,34.80699921,84.37400055
GA,Fayette County,13113,33.40299988,84.5
GA,Floyd County,13115,34.33200073,85.23300171
GA,Forsyth County,13117,34.19400024,84.11000061
GA,Franklin County,13119,34.3769989,83.22200012
GA,Fulton County,13121,33.84500122,84.47699738
GA,Gilmer County,13123,34.70399857,84.42500305
GA,Glascock County,13125,33.20299911,82.59200287
GA,Glynn County,13127,31.25499916,81.52600098
GA,Gordon County,13129,34.51499939,84.87799835
GA,Grady County,13131,30.87700081,84.23100281
GA,Greene County,13133,33.55799866,83.1760025
GA,Gwinnett County,13135,33.95899963,84.03600311
GA,Habersham County,13137,34.63000107,83.50900269
GA,Hall County,13139,34.31399918,83.84100342
GA,Hancock County,13141,33.27199936,83.01000214
GA,Haralson County,13143,33.77600098,85.20999908
GA,Harris County,13145,32.72700119,84.94100189
GA,Hart County,13147,34.36000061,82.94100189
GA,Heard County,13149,33.27700043,85.1190033
GA,Henry County,13151,33.47200012,84.13899994
GA,Houston County,13153,32.49200058,83.66899872
GA,Irwin County,13155,31.61599922,83.25099945
GA,Jackson County,13157,34.13100052,83.59500122
GA,Jasper County,13159,33.32899857,83.69799805
GA,Jeff Davis County,13161,31.8220005,82.63200378
GA,Jefferson County,13163,33.03699875,82.46600342
GA,Jenkins County,13165,32.75600052,81.95600128
GA,Johnson County,13167,32.66400146,82.69499969
GA,Jones County,13169,33.01399994,83.58899689
GA,Lamar County,13171,33.06499863,84.15599823
GA,Lanier County,13173,31.02000046,83.08499908
GA,Laurens County,13175,32.45199966,82.93599701
GA,Lee County,13177,31.76499939,84.1269989
GA,Liberty County,13179,31.8220005,81.4980011
GA,Lincoln County,13181,33.81000137,82.43199921
GA,Long County,13183,31.77599907,81.73200226
GA,Lowndes County,13185,30.82500076,83.25099945
GA,Lumpkin County,13187,34.5719986,84.01899719
GA,McDuffie County,13189,33.48400116,82.47200012
GA,McIntosh County,13191,31.50699997,81.44000244
GA,Macon County,13193,32.33800125,84.0530014
GA,Madison County,13195,34.13700104,83.18800354
GA,Marion County,13197,32.34899902,84.52300262
GA,Meriwether County,13199,33.03099823,84.6780014
GA,Miller County,13201,31.16300011,84.73500061
GA,Mitchell County,13205,31.26099968,84.2539978
GA,Monroe County,13207,33.02500153,83.91500092
GA,Montgomery County,13209,32.15399933,82.53500366
GA,Morgan County,13211,33.6269989,83.48000336
GA,Murray County,13213,34.7840004,84.76300049
GA,Muscogee County,13215,32.49200058,84.88899994
GA,Newton County,13217,33.55799866,83.86399841
GA,Oconee County,13219,33.83300018,83.46299744
GA,Oglethorpe County,13221,33.86800003,83.03299713
GA,Paulding County,13223,33.93099976,84.88899994
GA,Peach County,13225,32.57799911,83.85800171
GA,Pickens County,13227,34.46900177,84.45400238
GA,Pierce County,13229,31.375,82.23100281
GA,Pike County,13231,33.08800125,84.38500214
GA,Polk County,13233,33.99900055,85.16999817
GA,Pulaski County,13235,32.2519989,83.47399902
GA,Putnam County,13237,33.32899857,83.35399628
GA,Quitman County,13239,31.87899971,85.02100372
GA,Rabun County,13241,34.85900116,83.38300323
GA,Randolph County,13243,31.77099991,84.7519989
GA,Richmond County,13245,33.39799881,82.10500336
GA,Rockdale County,13247,33.65599823,84.04699707
GA,Schley County,13249,32.29199982,84.30500031
GA,Screven County,13251,32.76699829,81.61799622
GA,Seminole County,13253,30.8939991,84.87799835
GA,Spalding County,13255,33.26599884,84.2990036
GA,Stephens County,13257,34.5719986,83.27899933
GA,Stewart County,13259,32.07400131,84.85500336
GA,Sumter County,13261,32.05099869,84.18499756
GA,Talbot County,13263,32.69900131,84.4940033
GA,Taliaferro County,13265,33.5870018,82.84400177
GA,Tattnall County,13267,32.05099869,81.9960022
GA,Taylor County,13269,32.56100082,84.22499847
GA,Telfair County,13271,31.95999908,82.9240036
GA,Terrell County,13273,31.79299927,84.44799805
GA,Thomas County,13275,30.86499977,83.92700195
GA,Tift County,13277,31.46100044,83.49700165
GA,Toombs County,13279,32.13199997,82.34600067
GA,Towns County,13281,34.89300156,83.7440033
GA,Treutlen County,13283,32.4070015,82.56300354
GA,Troup County,13285,33.04800034,85.05000305
GA,Turner County,13287,31.71299934,83.6289978
GA,Twiggs County,13289,32.67599869,83.41100311
GA,Union County,13291,34.81900024,83.96700287
GA,Upson County,13293,32.84199905,84.3219986
GA,Walker County,13295,34.7840004,85.29100037
GA,Walton County,13297,33.76399994,83.7440033
GA,Ware County,13299,31.02000046,82.40299988
GA,Warren County,13301,33.43199921,82.61499786
GA,Washington County,13303,32.99700165,82.79799652
GA,Wayne County,13305,31.57600021,81.87599945
GA,Webster County,13307,32.07400131,84.54599762
GA,Wheeler County,13309,32.11399841,82.73500061
GA,White County,13311,34.65299988,83.75499725
GA,Whitfield County,13313,34.80699921,84.97499847
GA,Wilcox County,13315,31.9829998,83.39399719
GA,Wilkes County,13317,33.79299927,82.71199799
GA,Wilkinson County,13319,32.79600143,83.1760025
GA,Worth County,13321,31.58699989,83.83499908
ID,Ada County,16001,43.45899963,116.2419968
ID,Adams County,16003,44.85699844,116.5049973
ID,Bannock County,16005,42.65100098,112.310997
ID,Bear Lake County,16007,42.25600052,111.3259964
ID,Benewah County,16009,47.21699905,116.6829987
ID,Bingham County,16011,43.28699875,112.3000031
ID,Blaine County,16013,43.28099823,113.9960022
ID,Boise County,16015,43.96900177,115.6340027
ID,Bonner County,16017,48.36899948,116.5449982
ID,Bonneville County,16019,43.32099915,111.7779999
ID,Boundary County,16021,48.75299835,116.5400009
ID,Butte County,16023,43.75699997,113.2450027
ID,Camas County,16025,43.52799988,114.7289963
ID,Canyon County,16027,43.58499908,116.7689972
ID,Caribou County,16029,42.72000122,111.5550003
ID,Cassia County,16031,42.33000183,113.6409988
ID,Clark County,16033,44.26100159,112.3059998
ID,Clearwater County,16035,46.62200165,115.526001
ID,Custer County,16037,44.18700027,114.3050003
ID,Elmore County,16039,43.36700058,115.6169968
ID,Franklin County,16041,42.20399857,111.8190002
ID,Fremont County,16043,44.33599854,111.6009979
ID,Gem County,16045,44.15200043,116.4369965
ID,Gooding County,16047,42.92599869,114.8379974
ID,Idaho County,16049,45.88199997,115.5599976
ID,Jefferson County,16051,43.8429985,112.1620026
ID,Jerome County,16053,42.69100189,114.2710037
ID,Kootenai County,16055,47.67599869,116.6829987
ID,Latah County,16057,46.83399963,116.6829987
ID,Lemhi County,16059,44.95999908,113.8119965
ID,Lewis County,16061,46.23199844,116.4309998
ID,Lincoln County,16063,42.98300171,114.1500015
ID,Madison County,16065,43.77399826,111.6869965
ID,Minidoka County,16067,42.86899948,113.7040024
ID,Nez Perce County,16069,46.24300003,116.7060013
ID,Oneida County,16071,42.25,112.5350037
ID,Owyhee County,16073,42.84000015,116.0299988
ID,Payette County,16075,43.97999954,116.7170029
ID,Power County,16077,42.72000122,112.8270035
ID,Shoshone County,16079,47.48699951,115.6460037
ID,Teton County,16081,43.74000168,111.2229996
ID,Twin Falls County,16083,42.45000076,114.5169983
ID,Valley County,16085,44.67399979,115.4509964
ID,Washington County,16087,44.49599838,116.7570038
IL,Adams County,17001,39.98099899,91.20899963
IL,Alexander County,17003,37.15599823,89.31800079
IL,Bond County,17005,38.88700104,89.44499969
IL,Boone County,17007,42.32400131,88.81999969
IL,Brown County,17009,39.97000122,90.71600342
IL,Bureau County,17011,41.36800003,89.51300049
IL,Calhoun County,17013,39.16699982,90.69400024
IL,Carroll County,17015,42.06100082,90.0059967
IL,Cass County,17017,39.9980011,90.28700256
IL,Champaign County,17019,40.14099884,88.19499969
IL,Christian County,17021,39.58000183,89.27799988
IL,Clark County,17023,39.31600189,87.77100372
IL,Clay County,17025,38.75500107,88.47599792
IL,Clinton County,17027,38.58300018,89.42199707
IL,Coles County,17029,39.52799988,88.21800232
IL,Cook County,17031,41.81399918,87.89199829
IL,Crawford County,17033,39.01300049,87.73699951
IL,Cumberland County,17035,39.27600098,88.24099731
IL,DeKalb County,17037,41.88899994,88.76300049
IL,De Witt County,17039,40.16400146,88.86000061
IL,Douglas County,17041,39.76300049,88.20700073
IL,DuPage County,17043,41.8370018,88.10399628
IL,Edgar County,17045,39.67699814,87.74900055
IL,Edwards County,17047,38.4109993,88.05200195
IL,Effingham County,17049,39.06399918,88.58499908
IL,Fayette County,17051,38.97800064,88.97499847
IL,Ford County,17053,40.6969986,88.19499969
IL,Franklin County,17055,37.99300003,88.94000244
IL,Fulton County,17057,40.45100021,90.16100311
IL,Gallatin County,17059,37.74100113,88.2009964
IL,Greene County,17061,39.3219986,90.37799835
IL,Grundy County,17063,41.28699875,88.41899872
IL,Hamilton County,17065,38.07899857,88.53900146
IL,Hancock County,17067,40.41600037,91.20300293
IL,Hardin County,17069,37.5,88.23600006
IL,Henderson County,17071,40.85200119,90.98600006
IL,Henry County,17073,41.36800003,90.14900208
IL,Iroquois County,17075,40.74900055,87.82900238
IL,Jackson County,17077,37.76399994,89.41000366
IL,Jasper County,17079,39.01300049,88.15499878
IL,Jefferson County,17081,38.30199814,88.92299652
IL,Jersey County,17083,39.0929985,90.3730011
IL,Jo Daviess County,17085,42.35300064,90.28099823
IL,Johnson County,17087,37.44900131,88.8769989
IL,Kane County,17089,41.93500137,88.41899872
IL,Kankakee County,17091,41.14400101,87.88600159
IL,Kendall County,17093,41.5909996,88.43000031
IL,Knox County,17095,40.93199921,90.21199799
IL,Lake County,17097,42.32400131,87.97799683
IL,La Salle County,17099,41.27600098,88.8769989
IL,Lawrence County,17101,38.70899963,87.70800018
IL,Lee County,17103,41.74599838,89.28399658
IL,Livingston County,17105,40.86299896,88.59100342
IL,Logan County,17107,40.11899948,89.37599945
IL,McDonough County,17109,40.45700073,90.6760025
IL,McHenry County,17111,42.32400131,88.45300293
IL,McLean County,17113,40.52000046,88.86599731
IL,Macon County,17115,39.85499954,88.98000336
IL,Macoupin County,17117,39.25899887,89.9260025
IL,Madison County,17119,38.82899857,89.93699646
IL,Marion County,17121,38.65200043,88.91699982
IL,Marshall County,17123,41.03499985,89.34100342
IL,Mason County,17125,40.27299881,89.97699738
IL,Massac County,17127,37.20199966,88.71099854
IL,Menard County,17129,40.01499939,89.78800201
IL,Mercer County,17131,41.19599915,90.77400208
IL,Monroe County,17133,38.30199814,90.1210022
IL,Montgomery County,17135,39.25899887,89.42199707
IL,Morgan County,17137,39.70000076,90.26399994
IL,Moultrie County,17139,39.61999893,88.64199829
IL,Ogle County,17141,42.04899979,89.31300354
IL,Peoria County,17143,40.74300003,89.73100281
IL,Perry County,17145,38.08499908,89.35900116
IL,Piatt County,17147,40.0379982,88.60199738
IL,Pike County,17149,39.61999893,90.96900177
IL,Pope County,17151,37.33399963,88.56199646
IL,Pulaski County,17153,37.20199966,89.08899689
IL,Putnam County,17155,41.21300125,89.31300354
IL,Randolph County,17157,38.00999832,89.89700317
IL,Richland County,17159,38.70899963,88.08100128
IL,Rock Island County,17161,41.55699921,90.6309967
IL,St. Clair County,17163,38.43999863,89.98300171
IL,Saline County,17165,37.7519989,88.53900146
IL,Sangamon County,17167,39.7519989,89.60500336
IL,Schuyler County,17169,40.13600159,90.55599976
IL,Scott County,17171,39.65399933,90.4469986
IL,Shelby County,17173,39.43700027,88.8030014
IL,Stark County,17175,41.10400009,89.81099701
IL,Stephenson County,17177,42.35300064,89.66200256
IL,Tazewell County,17179,40.53699875,89.59300232
IL,Union County,17181,37.4659996,89.28399658
IL,Vermilion County,17183,40.18199921,87.73100281
IL,Wabash County,17185,38.4109993,87.82299805
IL,Warren County,17187,40.84600067,90.61299896
IL,Washington County,17189,38.36000061,89.42199707
IL,Wayne County,17191,38.4280014,88.42500305
IL,White County,17193,38.07300186,88.16100311
IL,Whiteside County,17195,41.75699997,89.93699646
IL,Will County,17197,41.46500015,87.89199829
IL,Williamson County,17199,37.72900009,88.92900085
IL,Winnebago County,17201,42.32400131,89.16899872
IL,Woodford County,17203,40.75999832,89.2440033
IN,Adams County,18001,40.74300003,84.93499756
IN,Allen County,18003,41.0929985,85.06700134
IN,Bartholomew County,18005,39.20199966,85.88600159
IN,Benton County,18007,40.60599899,87.30699921
IN,Blackford County,18009,40.47399902,85.32499695
IN,Boone County,18011,40.04999924,86.46499634
IN,Brown County,18013,39.19599915,86.23000336
IN,Carroll County,18015,40.58300018,86.5739975
IN,Cass County,18017,40.73699951,86.3730011
IN,Clark County,18019,38.44499969,85.70899963
IN,Clay County,18021,39.38499832,87.08999634
IN,Clinton County,18023,40.30799866,86.47100067
IN,Crawford County,18025,38.27399826,86.46499634
IN,Daviess County,18027,38.70299911,87.07800293
IN,Dearborn County,18029,39.1269989,84.97499847
IN,Decatur County,18031,39.29299927,85.49099731
IN,DeKalb County,18033,41.39599991,84.9980011
IN,Delaware County,18035,40.22700119,85.39399719
IN,Dubois County,18037,38.36500168,86.87799835
IN,Elkhart County,18039,41.59700012,85.85800171
IN,Fayette County,18041,39.65399933,85.16999817
IN,Floyd County,18043,38.29700089,85.90899658
IN,Fountain County,18045,40.1590004,87.2559967
IN,Franklin County,18047,39.39699936,85.05599976
IN,Fulton County,18049,41.04100037,86.20700073
IN,Gibson County,18051,38.34799957,87.65100098
IN,Grant County,18053,40.51399994,85.65200043
IN,Greene County,18055,39.0359993,86.96399689
IN,Hamilton County,18057,40.07300186,86.0530014
IN,Hancock County,18059,39.82099915,85.76599884
IN,Harrison County,18061,38.19300079,86.11599731
IN,Hendricks County,18063,39.76300049,86.51100159
IN,Henry County,18065,39.92900085,85.39900208
IN,Howard County,18067,40.4679985,86.1210022
IN,Huntington County,18069,40.82899857,85.49099731
IN,Jackson County,18071,38.90399933,86.05799866
IN,Jasper County,18073,40.98899841,87.10099792
IN,Jay County,18075,40.43899918,85.01000214
IN,Jefferson County,18077,38.74900055,85.44499969
IN,Jennings County,18079,39.00099945,85.61699677
IN,Johnson County,18081,39.48799896,86.10399628
IN,Knox County,18083,38.6629982,87.42199707
IN,Kosciusko County,18085,41.24200058,85.86399841
IN,LaGrange County,18087,41.64300156,85.4280014
IN,Lake County,18089,41.43600082,87.37000275
IN,LaPorte County,18091,41.49900055,86.72899628
IN,Lawrence County,18093,38.8409996,86.47699738
IN,Madison County,18095,40.1590004,85.72000122
IN,Marion County,18097,39.77999878,86.13300323
IN,Marshall County,18099,41.32699966,86.25900269
IN,Martin County,18101,38.70299911,86.8030014
IN,Miami County,18103,40.78300095,86.01799774
IN,Monroe County,18105,39.16699982,86.5
IN,Montgomery County,18107,40.0379982,86.89499664
IN,Morgan County,18109,39.48799896,86.47100067
IN,Newton County,18111,40.97800064,87.39900208
IN,Noble County,18113,41.39599991,85.42199707
IN,Ohio County,18115,38.96699905,85.0039978
IN,Orange County,18117,38.54299927,86.4940033
IN,Owen County,18119,39.31600189,86.84300232
IN,Parke County,18121,39.77999878,87.21600342
IN,Perry County,18123,38.04999924,86.63700104
IN,Pike County,18125,38.38800049,87.26699829
IN,Porter County,18127,41.47100067,87.07800293
IN,Posey County,18129,38.01599884,87.89199829
IN,Pulaski County,18131,41.04100037,86.69999695
IN,Putnam County,18133,39.66600037,86.83799744
IN,Randolph County,18135,40.1590004,85.01000214
IN,Ripley County,18137,39.11000061,85.2559967
IN,Rush County,18139,39.61999893,85.46199799
IN,St. Joseph County,18141,41.59700012,86.29299927
IN,Scott County,18143,38.68600082,85.73200226
IN,Shelby County,18145,39.52299881,85.78900146
IN,Spencer County,18147,38.03900146,87.03199768
IN,Starke County,18149,41.30500031,86.69999695
IN,Steuben County,18151,41.64300156,84.9980011
IN,Sullivan County,18153,39.08100128,87.43299866
IN,Switzerland County,18155,38.81200027,84.9980011
IN,Tippecanoe County,18157,40.38800049,86.89499664
IN,Tipton County,18159,40.31299973,86.0530014
IN,Union County,18161,39.62599945,84.9240036
IN,Vanderburgh County,18163,37.99900055,87.57700348
IN,Vermillion County,18165,39.87799835,87.4509964
IN,Vigo County,18167,39.43099976,87.39900208
IN,Wabash County,18169,40.84600067,85.79499817
IN,Warren County,18171,40.30199814,87.31300354
IN,Warrick County,18173,38.06200027,87.2440033
IN,Washington County,18175,38.5890007,86.0759964
IN,Wayne County,18177,39.86100006,85.01599884
IN,Wells County,18179,40.74300003,85.2559967
IN,White County,18181,40.73699951,86.83799744
IN,Whitley County,18183,41.15000153,85.49700165
IA,Adair County,19001,41.33300018,94.46900177
IA,Adams County,19003,41.02999878,94.6989975
IA,Allamakee County,19005,43.29299927,91.375
IA,Appanoose County,19007,40.74300003,92.8710022
IA,Audubon County,19009,41.68299866,94.89900208
IA,Benton County,19011,42.07799911,92.06300354
IA,Black Hawk County,19013,42.4679985,92.30899811
IA,Boone County,19015,42.0379982,93.93099976
IA,Bremer County,19017,42.77700043,92.31500244
IA,Buchanan County,19019,42.4679985,91.83899689
IA,Buena Vista County,19021,42.73699951,95.15100098
IA,Butler County,19023,42.73099899,92.79100037
IA,Calhoun County,19025,42.38199997,94.65299988
IA,Carroll County,19027,42.0379982,94.85900116
IA,Cass County,19029,41.33300018,94.9280014
IA,Cedar County,19031,41.77399826,91.1289978
IA,Cerro Gordo County,19033,43.08100128,93.26000214
IA,Cherokee County,19035,42.73699951,95.6210022
IA,Chickasaw County,19037,43.05799866,92.31500244
IA,Clarke County,19039,41.02999878,93.78800201
IA,Clay County,19041,43.08100128,95.15100098
IA,Clayton County,19043,42.86299896,91.24900055
IA,Clinton County,19045,41.88299942,90.52200317
IA,Crawford County,19047,42.0379982,95.37999725
IA,Dallas County,19049,41.68299866,94.03399658
IA,Davis County,19051,40.74300003,92.40699768
IA,Decatur County,19053,40.73699951,93.78800201
IA,Delaware County,19055,42.47299957,91.37000275
IA,Des Moines County,19057,40.88600159,91.18099976
IA,Dickinson County,19059,43.37900162,95.15100098
IA,Dubuque County,19061,42.48500061,90.80200195
IA,Emmet County,19063,43.37900162,94.6760025
IA,Fayette County,19065,42.86299896,91.84500122
IA,Floyd County,19067,43.05799866,92.79100037
IA,Franklin County,19069,42.73099899,93.26000214
IA,Fremont County,19071,40.74300003,95.60399628
IA,Greene County,19073,42.0379982,94.39499664
IA,Grundy County,19075,42.38199997,92.77899933
IA,Guthrie County,19077,41.68299866,94.49199677
IA,Hamilton County,19079,42.38199997,93.71900177
IA,Hancock County,19081,43.08100128,93.73600006
IA,Hardin County,19083,42.38199997,93.24900055
IA,Harrison County,19085,41.68799973,95.81600189
IA,Henry County,19087,40.98899841,91.54199982
IA,Howard County,19089,43.35599899,92.31500244
IA,Humboldt County,19091,42.77700043,94.20600128
IA,Ida County,19093,42.38700104,95.52899933
IA,Iowa County,19095,41.68799973,92.06300354
IA,Jackson County,19097,42.20999908,90.52700043
IA,Jasper County,19099,41.68299866,93.04799652
IA,Jefferson County,19101,41.02999878,91.94799805
IA,Johnson County,19103,41.64300156,91.59899902
IA,Jones County,19105,42.12400055,91.1289978
IA,Keokuk County,19107,41.33300018,92.1780014
IA,Kossuth County,19109,43.20100021,94.20600128
IA,Lee County,19111,40.59400177,91.41500092
IA,Linn County,19113,42.07799911,91.59899902
IA,Louisa County,19115,41.24700165,91.21499634
IA,Lucas County,19117,41.02999878,93.32900238
IA,Lyon County,19119,43.37900162,96.22799683
IA,Madison County,19121,41.33300018,94.01699829
IA,Mahaska County,19123,41.33300018,92.64199829
IA,Marion County,19125,41.33300018,93.09999847
IA,Marshall County,19127,42.0379982,92.99700165
IA,Mills County,19129,41.02999878,95.63200378
IA,Mitchell County,19131,43.35599899,92.79100037
IA,Monona County,19133,42.0379982,96.01100159
IA,Monroe County,19135,41.02999878,92.8710022
IA,Montgomery County,19137,41.02999878,95.15699768
IA,Muscatine County,19139,41.46500015,91.07700348
IA,O'Brien County,19141,43.08100128,95.6269989
IA,Osceola County,19143,43.37900162,95.6269989
IA,Page County,19145,40.73699951,95.15100098
IA,Palo Alto County,19147,43.08100128,94.6760025
IA,Plymouth County,19149,42.73699951,96.2460022
IA,Pocahontas County,19151,42.73099899,94.6760025
IA,Polk County,19153,41.67699814,93.56999969
IA,Pottawattamie County,19155,41.33300018,95.57499695
IA,Poweshiek County,19157,41.68799973,92.53299713
IA,Ringgold County,19159,40.73199844,94.23999786
IA,Sac County,19161,42.38700104,95.1230011
IA,Scott County,19163,41.61399841,90.60800171
IA,Shelby County,19165,41.68299866,95.30000305
IA,Sioux County,19167,43.08599854,96.20500183
IA,Story County,19169,42.0379982,93.46700287
IA,Tama County,19171,42.07799911,92.53299713
IA,Taylor County,19173,40.73699951,94.6989975
IA,Union County,19175,41.02999878,94.23999786
IA,Van Buren County,19177,40.74900055,91.94799805
IA,Wapello County,19179,41.02999878,92.40699768
IA,Warren County,19181,41.33300018,93.55799866
IA,Washington County,19183,41.3390007,91.71299744
IA,Wayne County,19185,40.73699951,93.32900238
IA,Webster County,19187,42.4280014,94.18900299
IA,Winnebago County,19189,43.37900162,93.73600006
IA,Winneshiek County,19191,43.29299927,91.84500122
IA,Woodbury County,19193,42.38700104,96.08499908
IA,Worth County,19195,43.37900162,93.26000214
IA,Wright County,19197,42.73099899,93.73600006
KS,Allen County,20001,37.88399887,95.30000305
KS,Anderson County,20003,38.2159996,95.29399872
KS,Atchison County,20005,39.5340004,95.27100372
KS,Barber County,20007,37.23699951,98.68099976
KS,Barton County,20009,38.47999954,98.75499725
KS,Bourbon County,20011,37.85499954,94.85299683
KS,Brown County,20013,39.82600021,95.56400299
KS,Butler County,20015,37.78099823,96.83599854
KS,Chase County,20017,38.30199814,96.59500122
KS,Chautauqua County,20019,37.15100098,96.2460022
KS,Cherokee County,20021,37.16799927,94.84799957
KS,Cheyenne County,20023,39.7859993,101.7289963
KS,Clark County,20025,37.23699951,99.82700348
KS,Clay County,20027,39.35100174,97.16200256
KS,Cloud County,20029,39.48300171,97.64900208
KS,Coffey County,20031,38.23400116,95.73600006
KS,Comanche County,20033,37.19100189,99.27100372
KS,Cowley County,20035,37.23699951,96.84100342
KS,Crawford County,20037,37.50600052,94.85299683
KS,Decatur County,20039,39.7859993,100.4570007
KS,Dickinson County,20041,38.86899948,97.13400269
KS,Doniphan County,20043,39.80899811,95.10500336
KS,Douglas County,20045,38.89799881,95.27700043
KS,Edwards County,20047,37.9129982,99.29399872
KS,Elk County,20049,37.45399857,96.23999786
KS,Ellis County,20051,38.91500092,99.31700134
KS,Ellsworth County,20053,38.69800186,98.20500183
KS,Finney County,20055,37.99900055,100.663002
KS,Ford County,20057,37.68899918,99.88999939
KS,Franklin County,20059,38.56600189,95.28299713
KS,Geary County,20061,39.04700089,96.73300171
KS,Gove County,20063,38.91500092,100.4850006
KS,Graham County,20065,39.35100174,99.88400269
KS,Grant County,20067,37.56299973,101.3050003
KS,Gray County,20069,37.73500061,100.4339981
KS,Greeley County,20071,38.47999954,101.8030014
KS,Greenwood County,20073,37.88999939,96.23999786
KS,Hamilton County,20075,37.99900055,101.7860031
KS,Harper County,20077,37.19100189,98.07299805
KS,Harvey County,20079,38.04399872,97.4260025
KS,Haskell County,20081,37.56299973,100.8690033
KS,Hodgeman County,20083,38.08499908,99.89499664
KS,Jackson County,20085,39.43700027,95.7990036
KS,Jefferson County,20087,39.22999954,95.38600159
KS,Jewell County,20089,39.7859993,98.21700287
KS,Johnson County,20091,38.89199829,94.83000183
KS,Kearny County,20093,37.99900055,101.3160019
KS,Kingman County,20095,37.55699921,98.13600159
KS,Kiowa County,20097,37.55699921,99.28199768
KS,Labette County,20099,37.19100189,95.30000305
KS,Lane County,20101,38.47999954,100.4680023
KS,Leavenworth County,20103,39.20199966,94.97899628
KS,Lincoln County,20105,39.04700089,98.21099854
KS,Linn County,20107,38.21099854,94.84799957
KS,Logan County,20109,38.91500092,101.1500015
KS,Lyon County,20111,38.45700073,96.15399933
KS,McPherson County,20113,38.39400101,97.64900208
KS,Marion County,20115,38.34799957,97.09400177
KS,Marshall County,20117,39.7859993,96.52100372
KS,Meade County,20119,37.23699951,100.3710022
KS,Miami County,20121,38.56600189,94.83599854
KS,Mitchell County,20123,39.39099884,98.21099854
KS,Montgomery County,20125,37.19100189,95.74099731
KS,Morris County,20127,38.69800186,96.64099884
KS,Morton County,20129,37.19100189,101.7969971
KS,Nemaha County,20131,39.77999878,96.01100159
KS,Neosho County,20133,37.55699921,95.30599976
KS,Ness County,20135,38.47999954,99.91799927
KS,Norton County,20137,39.7859993,99.90100098
KS,Osage County,20139,38.65200043,95.72399902
KS,Osborne County,20141,39.35100174,98.76699829
KS,Ottawa County,20143,39.13299942,97.64900208
KS,Pawnee County,20145,38.17599869,99.2480011
KS,Phillips County,20147,39.7859993,99.34500122
KS,Pottawatomie County,20149,39.34500122,96.38300323
KS,Pratt County,20151,37.64899826,98.73799896
KS,Rawlins County,20153,39.7859993,101.0759964
KS,Reno County,20155,37.95299911,98.08499908
KS,Republic County,20157,39.82600021,97.64900208
KS,Rice County,20159,38.34799957,98.1989975
KS,Riley County,20161,39.30500031,96.67500305
KS,Rooks County,20163,39.35100174,99.3219986
KS,Rush County,20165,38.52000046,99.31099701
KS,Russell County,20167,38.91500092,98.76100159
KS,Saline County,20169,38.7840004,97.64900208
KS,Scott County,20171,38.47999954,100.9039993
KS,Sedgwick County,20173,37.69499969,97.47699738
KS,Seward County,20175,37.19100189,100.8519974
KS,Shawnee County,20177,39.04100037,95.76999664
KS,Sheridan County,20179,39.35100174,100.4400024
KS,Sherman County,20181,39.35100174,101.7170029
KS,Smith County,20183,39.7859993,98.78399658
KS,Stafford County,20185,38.04399872,98.74900055
KS,Stanton County,20187,37.56299973,101.7860031
KS,Stevens County,20189,37.19100189,101.3099976
KS,Sumner County,20191,37.23699951,97.47699738
KS,Thomas County,20193,39.35100174,101.0530014
KS,Trego County,20195,38.91500092,99.87200165
KS,Wabaunsee County,20197,38.95500183,96.22299957
KS,Wallace County,20199,38.91500092,101.7630005
KS,Washington County,20201,39.7859993,97.08799744
KS,Wichita County,20203,38.47999954,101.3450012
KS,Wilson County,20205,37.55699921,95.74099731
KS,Woodson County,20207,37.88399887,95.74099731
KS,Wyandotte County,20209,39.09899902,94.75
KY,Adair County,21001,37.11600113,85.28500366
KY,Allen County,21003,36.77799988,86.19000244
KY,Anderson County,21005,38.00999832,84.98100281
KY,Ballard County,21007,37.08200073,88.99199677
KY,Barren County,21009,36.94400024,85.95500183
KY,Bath County,21011,38.14799881,83.72599792
KY,Bell County,21013,36.77199936,83.70300293
KY,Boone County,21015,38.93799973,84.7460022
KY,Bourbon County,21017,38.2159996,84.20800018
KY,Boyd County,21019,38.3769989,82.70700073
KY,Boyle County,21021,37.62599945,84.84899902
KY,Bracken County,21023,38.69200134,84.06999969
KY,Breathitt County,21025,37.5,83.26200104
KY,Breckinridge County,21027,37.80400085,86.41400146
KY,Bullitt County,21029,37.9640007,85.68599701
KY,Butler County,21031,37.19599915,86.67099762
KY,Caldwell County,21033,37.16799927,87.88600159
KY,Calloway County,21035,36.6230011,88.26999664
KY,Campbell County,21037,38.95000076,84.36799622
KY,Carlisle County,21039,36.86399841,88.96900177
KY,Carroll County,21041,38.66899872,85.13600159
KY,Carter County,21043,38.3370018,83.05599976
KY,Casey County,21045,37.33399963,84.93499756
KY,Christian County,21047,36.89899826,87.4960022
KY,Clark County,21049,37.97600174,84.15000153
KY,Clay County,21051,37.14500046,83.72599792
KY,Clinton County,21053,36.75,85.13600159
KY,Crittenden County,21055,37.32799911,88.08100128
KY,Cumberland County,21057,36.77799988,85.40499878
KY,Daviess County,21059,37.74599838,87.11799622
KY,Edmonson County,21061,37.19599915,86.26499939
KY,Elliott County,21063,38.09600067,83.09600067
KY,Estill County,21065,37.69499969,83.90399933
KY,Fayette County,21067,38.02700043,84.47100067
KY,Fleming County,21069,38.35400009,83.71499634
KY,Floyd County,21071,37.51200104,82.7519989
KY,Franklin County,21073,38.24499893,84.87200165
KY,Fulton County,21075,36.5719986,89.19200134
KY,Gallatin County,21077,38.76100159,84.84400177
KY,Garrard County,21079,37.64899826,84.54599762
KY,Grant County,21081,38.63499832,84.63200378
KY,Graves County,21083,36.72100067,88.65399933
KY,Grayson County,21085,37.45999908,86.32800293
KY,Green County,21087,37.2879982,85.51999664
KY,Greenup County,21089,38.56600189,82.91899872
KY,Hancock County,21091,37.83200073,86.80899811
KY,Hardin County,21093,37.72399902,85.97799683
KY,Harlan County,21095,36.8409996,83.18199921
KY,Harrison County,21097,38.43399811,84.32800293
KY,Hart County,21099,37.31100082,85.90899658
KY,Henderson County,21101,37.78699875,87.61699677
KY,Henry County,21103,38.4679985,85.10700226
KY,Hickman County,21105,36.64599991,88.99199677
KY,Hopkins County,21107,37.35699844,87.57099915
KY,Jackson County,21109,37.40800095,83.98999786
KY,Jefferson County,21111,38.18799973,85.68599701
KY,Jessamine County,21113,37.88399887,84.5739975
KY,Johnson County,21115,37.83800125,82.80999756
KY,Kenton County,21117,38.94400024,84.52300262
KY,Knott County,21119,37.35100174,82.91899872
KY,Knox County,21121,36.86999893,83.84100342
KY,Larue County,21123,37.57500076,85.68000031
KY,Laurel County,21125,37.13299942,84.11599731
KY,Lawrence County,21127,38.06200027,82.75800323
KY,Lee County,21129,37.60900116,83.71499634
KY,Leslie County,21131,37.06499863,83.34799957
KY,Letcher County,21133,37.11100006,82.86100006
KY,Lewis County,21135,38.52000046,83.33699799
KY,Lincoln County,21137,37.43700027,84.64900208
KY,Livingston County,21139,37.20199966,88.3789978
KY,Logan County,21141,36.85800171,86.83799744
KY,Lyon County,21143,37.02500153,88.05799866
KY,McCracken County,21145,37.08200073,88.70500183
KY,McCreary County,21147,36.77199936,84.5
KY,McLean County,21149,37.5340004,87.26699829
KY,Madison County,21151,37.70600128,84.30500031
KY,Magoffin County,21153,37.67200089,83.09600067
KY,Marion County,21155,37.56900024,85.27300262
KY,Marshall County,21157,36.88700104,88.2990036
KY,Martin County,21159,37.81499863,82.48899841
KY,Mason County,21161,38.62900162,83.81800079
KY,Meade County,21163,37.99300003,86.24700165
KY,Menifee County,21165,37.93600082,83.59999847
KY,Mercer County,21167,37.82699966,84.87200165
KY,Metcalfe County,21169,37.0019989,85.59999847
KY,Monroe County,21171,36.73199844,85.70899963
KY,Montgomery County,21173,38.05599976,83.92099762
KY,Morgan County,21175,37.9129982,83.23899841
KY,Muhlenberg County,21177,37.23699951,87.14099884
KY,Nelson County,21179,37.77500153,85.44499969
KY,Nicholas County,21181,38.32500076,84.01899719
KY,Ohio County,21183,37.47700119,86.84899902
KY,Oldham County,21185,38.40499878,85.46199799
KY,Owen County,21187,38.53699875,84.8259964
KY,Owsley County,21189,37.38600159,83.70300293
KY,Pendleton County,21191,38.70899963,84.36799622
KY,Perry County,21193,37.20199966,83.27400208
KY,Pike County,21195,37.4659996,82.35099792
KY,Powell County,21197,37.82099915,83.81800079
KY,Pulaski County,21199,37.09899902,84.59700012
KY,Robertson County,21201,38.51399994,84.04699707
KY,Rockcastle County,21203,37.34500122,84.3219986
KY,Rowan County,21205,38.20500183,83.42299652
KY,Russell County,21207,37.01900101,85.03299713
KY,Scott County,21209,38.30199814,84.56900024
KY,Shelby County,21211,38.19900131,85.23300171
KY,Simpson County,21213,36.75500107,86.58499908
KY,Spencer County,21215,38.06200027,85.29599762
KY,Taylor County,21217,37.33399963,85.33100128
KY,Todd County,21219,36.85800171,87.19300079
KY,Trigg County,21221,36.81800079,87.9260025
KY,Trimble County,21223,38.61199951,85.30200195
KY,Union County,21225,37.68899918,87.93199921
KY,Warren County,21227,36.97299957,86.39600372
KY,Washington County,21229,37.76399994,85.20999908
KY,Wayne County,21231,36.80099869,84.82099915
KY,Webster County,21233,37.5,87.65100098
KY,Whitley County,21235,36.77199936,84.08699799
KY,Wolfe County,21237,37.74100113,83.48000336
KY,Woodford County,21239,38.02700043,84.7460022
LA,Acadia Parish,22001,30.28700066,92.38400269
LA,Allen Parish,22003,30.6590004,92.86499786
LA,Ascension Parish,22005,30.20100021,90.8710022
LA,Assumption Parish,22007,29.85099983,91.0719986
LA,Avoyelles Parish,22009,31.0890007,92
LA,Beauregard Parish,22011,30.6420002,93.35800171
LA,Bienville Parish,22013,32.36600113,93.09999847
LA,Bossier Parish,22015,32.62400055,93.58699799
LA,Caddo Parish,22017,32.60699844,93.75900269
LA,Calcasieu Parish,22019,30.21800041,93.3690033
LA,Caldwell Parish,22021,32.10300064,92.10299683
LA,Cameron Parish,22023,29.81699944,93.19200134
LA,Catahoula Parish,22025,31.60400009,91.77600098
LA,Claiborne Parish,22027,32.80199814,92.98000336
LA,Concordia Parish,22029,31.36400032,91.60500336
LA,De Soto Parish,22031,32.0909996,93.69599915
LA,East Baton Rouge Parish,22033,30.52099991,91.0719986
LA,East Carroll Parish,22035,32.77299881,91.24900055
LA,East Feliciana Parish,22037,30.82500076,91.06600189
LA,Evangeline Parish,22039,30.73900032,92.4240036
LA,Franklin Parish,22041,32.14300156,91.68499756
LA,Grant Parish,22043,31.63899994,92.57900238
LA,Iberia Parish,22045,29.82799911,91.63300323
LA,Iberville Parish,22047,30.26399994,91.35800171
LA,Jackson Parish,22049,32.32099915,92.56099701
LA,Jefferson Parish,22051,29.60499954,90.09200287
LA,Jefferson Davis Parish,22053,30.26399994,92.86499786
LA,Lafayette Parish,22055,30.20100021,92.12000275
LA,Lafourche Parish,22057,29.48399925,90.51599884
LA,La Salle Parish,22059,31.62700081,92.18299866
LA,Lincoln Parish,22061,32.60699844,92.64700317
LA,Livingston Parish,22063,30.43000031,90.68800354
LA,Madison Parish,22065,32.3429985,91.26100159
LA,Morehouse Parish,22067,32.75600052,91.7539978
LA,Natchitoches Parish,22069,31.74799919,93.07700348
LA,Orleans Parish,22071,30,89.87999725
LA,Ouachita Parish,22073,32.4980011,92.16600037
LA,Plaquemines Parish,22075,29.60499954,89.51300049
LA,Pointe Coupee Parish,22077,30.75600052,91.56999969
LA,Rapides Parish,22079,31.20299911,92.53299713
LA,Red River Parish,22081,32.06299973,93.40399933
LA,Richland Parish,22083,32.4070015,91.73600006
LA,Sabine Parish,22085,31.51300049,93.55799866
LA,St. Bernard Parish,22087,29.90299988,89.36399841
LA,St. Charles Parish,22089,29.88599968,90.37799835
LA,St. Helena Parish,22091,30.82500076,90.73899841
LA,St. James Parish,22093,30.02899933,90.80200195
LA,St. John the Baptist Parish,22095,30.09199905,90.48200226
LA,St. Landry Parish,22097,30.57299995,92.12599945
LA,St. Martin Parish,22099,30.09700012,91.54199982
LA,St. Mary Parish,22101,29.7140007,91.46700287
LA,St. Tammany Parish,22103,30.43000031,89.93199921
LA,Tangipahoa Parish,22105,30.625,90.40699768
LA,Tensas Parish,22107,31.97100067,91.3010025
LA,Terrebonne Parish,22109,29.37599945,90.81999969
LA,Union Parish,22111,32.79600143,92.39499664
LA,Vermilion Parish,22113,29.86300087,92.34899902
LA,Vernon Parish,22115,31.11700058,93.19200134
LA,Washington Parish,22117,30.83699989,90.03500366
LA,Webster Parish,22119,32.7159996,93.34100342
LA,West Baton Rouge Parish,22121,30.49300003,91.31199646
LA,West Carroll Parish,22123,32.79600143,91.44999695
LA,West Feliciana Parish,22125,30.84799957,91.46099854
LA,Winn Parish,22127,31.92499924,92.63600159
ME,Androscoggin County,23001,44.23199844,70.24500275
ME,Aroostook County,23003,46.07699966,68.91500092
ME,Cumberland County,23005,43.77999878,70.31900024
ME,Franklin County,23007,44.86800003,70.38200378
ME,Hancock County,23009,44.68500137,68.41100311
ME,Kennebec County,23011,44.40999985,69.79799652
ME,Knox County,23013,44.06600189,69.00700378
ME,Lincoln County,23015,44.04899979,69.56900024
ME,Oxford County,23017,44.54800034,70.66300201
ME,Penobscot County,23019,46.39799881,69.35099792
ME,Piscataquis County,23021,45.82500076,69.2990036
ME,Sagadahoc County,23023,43.92300034,69.88400269
ME,Somerset County,23025,45.59000015,69.64299774
ME,Waldo County,23027,44.47299957,69.15599823
ME,Washington County,23029,45.04600143,67.54599762
ME,York County,23031,43.43600082,70.65699768
MD,Allegany County,24001,39.60300064,78.70200348
MD,Anne Arundel County,24003,38.97299957,76.68499756
MD,Baltimore County,24005,39.46500015,76.61599731
MD,Calvert County,24009,38.67499924,76.61000061
MD,Caroline County,24011,38.88700104,75.84200287
MD,Carroll County,24013,39.5340004,77.03399658
MD,Cecil County,24015,39.54600143,75.99700165
MD,Charles County,24017,38.47999954,76.87999725
MD,Dorchester County,24019,38.40000153,76.01999664
MD,Frederick County,24021,39.47100067,77.41200256
MD,Garrett County,24023,39.46500015,79.19999695
MD,Harford County,24025,39.5,76.32900238
MD,Howard County,24027,39.22999954,76.93099976
MD,Kent County,24029,39.27099991,75.90000153
MD,Montgomery County,24031,39.14500046,77.17199707
MD,Prince George's County,24033,38.8409996,76.87400055
MD,Queen Anne's County,24035,39.05899811,75.99099731
MD,St. Mary's County,24037,38.31399918,76.68499756
MD,Somerset County,24039,38.09600067,75.83100128
MD,Talbot County,24041,38.79499817,76.16300201
MD,Washington County,24043,39.52299881,77.90499878
MD,Wicomico County,24045,38.40499878,75.58999634
MD,Worcester County,24047,38.22200012,75.33799744
MD,Baltimore city,24510,39.22499847,76.5759964
MA,Barnstable County,25001,41.70600128,70.29599762
MA,Berkshire County,25003,42.39300156,73.22399902
MA,Bristol County,25005,41.79700089,71.10399628
MA,Dukes County,25007,41.38499832,70.6969986
MA,Essex County,25009,42.6570015,70.91500092
MA,Franklin County,25011,42.54199982,72.65100098
MA,Hampden County,25013,42.16999817,72.59400177
MA,Hampshire County,25015,42.39899826,72.61100006
MA,Middlesex County,25017,42.44499969,71.46499634
MA,Nantucket County,25019,41.2820015,70.15899658
MA,Norfolk County,25021,42.16400146,71.13800049
MA,Plymouth County,25023,41.96300125,70.81199646
MA,Suffolk County,25025,42.36500168,71.07499695
MA,Worcester County,25027,42.36500168,71.89499664
MI,Alcona County,26001,44.68500137,83.60600281
MI,Alger County,26003,46.42699814,86.48799896
MI,Allegan County,26005,42.59400177,85.90899658
MI,Alpena County,26007,45.02899933,83.60600281
MI,Antrim County,26009,45.01200104,85.14700317
MI,Arenac County,26011,44.0379982,83.8010025
MI,Baraga County,26013,46.67900085,88.36199951
MI,Barry County,26015,42.59400177,85.30799866
MI,Bay County,26017,43.74000168,83.93299866
MI,Benzie County,26019,44.64500046,86.02400208
MI,Berrien County,26021,42.00400162,86.52200317
MI,Branch County,26023,41.91799927,85.06099701
MI,Calhoun County,26025,42.24399948,85.0039978
MI,Cass County,26027,41.91799927,85.98999786
MI,Charlevoix County,26029,45.4129982,85.11299896
MI,Cheboygan County,26031,45.49300003,84.47100067
MI,Chippewa County,26033,46.3409996,84.41999817
MI,Clare County,26035,43.98600006,84.84899902
MI,Clinton County,26037,42.94300079,84.60299683
MI,Crawford County,26039,44.68500137,84.60900116
MI,Delta County,26041,45.83100128,86.91200256
MI,Dickinson County,26043,45.98600006,87.8690033
MI,Eaton County,26045,42.59400177,84.83799744
MI,Emmet County,26047,45.53300095,84.91200256
MI,Genesee County,26049,43.00099945,83.69200134
MI,Gladwin County,26051,43.98600006,84.38500214
MI,Gogebic County,26053,46.43299866,89.70200348
MI,Grand Traverse County,26055,44.68500137,85.57700348
MI,Gratiot County,26057,43.29299927,84.60900116
MI,Hillsdale County,26059,41.88299942,84.59200287
MI,Houghton County,26061,46.85100174,88.60800171
MI,Huron County,26063,43.77999878,83.03900146
MI,Ingham County,26065,42.59899902,84.37400055
MI,Ionia County,26067,42.94300079,85.07299805
MI,Iosco County,26069,44.33599854,83.59999847
MI,Iron County,26071,46.16899872,88.55599976
MI,Isabella County,26073,43.64199829,84.84899902
MI,Jackson County,26075,42.25,84.42500305
MI,Kalamazoo County,26077,42.24399948,85.53099823
MI,Kalkaska County,26079,44.68500137,85.08999634
MI,Kent County,26081,43.02899933,85.54799652
MI,Keweenaw County,26083,47.52099991,88.35600281
MI,Lake County,26085,43.99200058,85.80000305
MI,Lapeer County,26087,43.10400009,83.22200012
MI,Leelanau County,26089,45.13199997,85.89800262
MI,Lenawee County,26091,41.89500046,84.06400299
MI,Livingston County,26093,42.60499954,83.91000366
MI,Luce County,26095,46.50099945,85.54799652
MI,Mackinac County,26097,45.99700165,84.98699951
MI,Macomb County,26099,42.66799927,82.91300201
MI,Manistee County,26101,44.3409996,86.10399628
MI,Marquette County,26103,46.47299957,87.61699677
MI,Mason County,26105,43.99700165,86.23600006
MI,Mecosta County,26107,43.64199829,85.32499695
MI,Menominee County,26109,45.53900146,87.55400085
MI,Midland County,26111,43.64799881,84.38500214
MI,Missaukee County,26113,44.33599854,85.08999634
MI,Monroe County,26115,41.90599823,83.48000336
MI,Montcalm County,26117,43.29299927,85.1989975
MI,Montmorency County,26119,45.02899933,84.1269989
MI,Muskegon County,26121,43.29299927,86.1269989
MI,Newaygo County,26123,43.55599976,85.80000305
MI,Oakland County,26125,42.6570015,83.38300323
MI,Oceana County,26127,43.64199829,86.24700165
MI,Ogemaw County,26129,44.33599854,84.1269989
MI,Ontonagon County,26131,46.67900085,89.41000366
MI,Osceola County,26133,43.99200058,85.32499695
MI,Oscoda County,26135,44.67900085,84.1269989
MI,Otsego County,26137,45.02899933,84.60900116
MI,Ottawa County,26139,42.98300171,86.02999878
MI,Presque Isle County,26141,45.4129982,83.81800079
MI,Roscommon County,26143,44.33599854,84.60900116
MI,Saginaw County,26145,43.34999847,84.02999878
MI,St. Clair County,26147,42.92599869,82.7519989
MI,St. Joseph County,26149,41.91799927,85.52500153
MI,Sanilac County,26151,43.42499924,82.80999756
MI,Schoolcraft County,26153,46.12900162,86.24199677
MI,Shiawassee County,26155,42.95500183,84.14499664
MI,Tuscola County,26157,43.47600174,83.40599823
MI,Van Buren County,26159,42.24399948,86.06400299
MI,Washtenaw County,26161,42.25600052,83.83499908
MI,Wayne County,26163,42.23799896,83.21099854
MI,Wexford County,26165,44.3409996,85.57700348
MN,Aitkin County,27001,46.5929985,93.42700195
MN,Anoka County,27003,45.22399902,93.26599884
MN,Becker County,27005,46.93700027,95.6780014
MN,Beltrami County,27007,47.97399902,95.00800323
MN,Benton County,27009,45.68799973,94.01699829
MN,Big Stone County,27011,45.38399887,96.46900177
MN,Blue Earth County,27013,44.05500031,94.06800079
MN,Brown County,27015,44.30099869,94.73899841
MN,Carlton County,27017,46.5929985,92.6760025
MN,Carver County,27019,44.81100082,93.76499939
MN,Cass County,27021,46.86199951,94.27999878
MN,Chippewa County,27023,44.95399857,95.63800049
MN,Chisago County,27025,45.50999832,92.91699982
MN,Clay County,27027,46.89099884,96.50900269
MN,Clearwater County,27029,47.58399963,95.375
MN,Cook County,27031,47.82500076,91.02600098
MN,Cottonwood County,27033,44.02000046,95.16300201
MN,Crow Wing County,27035,46.47800064,94.05699921
MN,Dakota County,27037,44.67900085,93.03099823
MN,Dodge County,27039,44.02000046,92.85900116
MN,Douglas County,27041,45.93399811,95.45500183
MN,Faribault County,27043,43.67100143,93.94799805
MN,Fillmore County,27045,43.67100143,92.09200287
MN,Freeborn County,27047,43.67100143,93.34600067
MN,Goodhue County,27049,44.45600128,92.64199829
MN,Grant County,27051,45.93399811,96.01100159
MN,Hennepin County,27053,45.01699829,93.47200012
MN,Houston County,27055,43.67100143,91.47299957
MN,Hubbard County,27057,47.10900116,94.92199707
MN,Isanti County,27059,45.57300186,93.26599884
MN,Itasca County,27061,47.45800018,93.73600006
MN,Jackson County,27063,43.67699814,95.15100098
MN,Kanabec County,27065,45.94599915,93.28299713
MN,Kandiyohi County,27067,45.14899826,95.00800323
MN,Kittson County,27069,48.77000046,96.80699921
MN,Koochiching County,27071,48.27199936,93.75299835
MN,Lac qui Parle County,27073,45.03499985,96.09700012
MN,Lake County,27075,47.57300186,91.41000366
MN,Lake of the Woods County,27077,48.68399811,94.88800049
MN,Le Sueur County,27079,44.36999893,93.76999664
MN,Lincoln County,27081,44.41600037,96.26300049
MN,Lyon County,27083,44.40999985,95.84400177
MN,McLeod County,27085,44.84500122,94.25700378
MN,Mahnomen County,27087,47.32600021,95.80999756
MN,Marshall County,27089,48.35800171,96.3769989
MN,Martin County,27091,43.67699814,94.55000305
MN,Meeker County,27093,45.10900116,94.50900269
MN,Mille Lacs County,27095,45.90000153,93.6210022
MN,Morrison County,27097,46.06000137,94.20600128
MN,Mower County,27099,43.67100143,92.75
MN,Murray County,27101,44.02000046,95.76399994
MN,Nicollet County,27103,44.31299973,94.35500336
MN,Nobles County,27105,43.67699814,95.75299835
MN,Norman County,27107,47.32600021,96.45800018
MN,Olmsted County,27109,44.01499939,92.38400269
MN,Otter Tail County,27111,46.40999985,95.71299744
MN,Pennington County,27113,48.05400085,96.03900146
MN,Pine County,27115,46.0719986,92.71600342
MN,Pipestone County,27117,44.02000046,96.25700378
MN,Polk County,27119,47.83599854,96.34899902
MN,Pope County,27121,45.58499908,95.44300079
MN,Ramsey County,27123,45.00600052,93.10600281
MN,Red Lake County,27125,47.90499878,96.09700012
MN,Redwood County,27127,44.44400024,95.23100281
MN,Renville County,27129,44.67399979,94.99099731
MN,Rice County,27131,44.36999893,93.28299713
MN,Rock County,27133,43.67699814,96.25099945
MN,Roseau County,27135,48.77000046,95.85600281
MN,St. Louis County,27137,47.64099884,92.44100189
MN,Scott County,27139,44.67399979,93.59300232
MN,Sherburne County,27141,45.40100098,93.82800293
MN,Sibley County,27143,44.58800125,94.19400024
MN,Stearns County,27145,45.52700043,94.59500122
MN,Steele County,27147,44.02000046,93.22599792
MN,Stevens County,27149,45.58499908,95.99900055
MN,Swift County,27151,45.28099823,95.6780014
MN,Todd County,27153,46.0719986,94.89900208
MN,Traverse County,27155,45.80199814,96.54299927
MN,Wabasha County,27157,44.27799988,92.20600128
MN,Wadena County,27159,46.5870018,94.94499969
MN,Waseca County,27161,44.02000046,93.58699799
MN,Washington County,27163,45.02299881,92.88200378
MN,Watonwan County,27165,43.97999954,94.61299896
MN,Wilkin County,27167,46.32400131,96.52600098
MN,Winona County,27169,44.02000046,91.67900085
MN,Wright County,27171,45.20100021,93.89099884
MN,Yellow Medicine County,27173,44.73699951,95.90699768
MS,Adams County,28001,31.47299957,91.37000275
MS,Alcorn County,28003,34.87599945,88.59100342
MS,Amite County,28005,31.17499924,90.81999969
MS,Attala County,28007,33.08300018,89.63899994
MS,Benton County,28009,34.79000092,89.18699646
MS,Bolivar County,28011,33.8219986,90.94599915
MS,Calhoun County,28013,33.94200134,89.3239975
MS,Carroll County,28015,33.44400024,89.90899658
MS,Chickasaw County,28017,33.90800095,88.95800018
MS,Choctaw County,28019,33.32300186,89.27300262
MS,Claiborne County,28021,32.00500107,90.98000336
MS,Clarke County,28023,32.02799988,88.67099762
MS,Clay County,28025,33.65599823,88.76799774
MS,Coahoma County,28027,34.25099945,90.6760025
MS,Copiah County,28029,31.87400055,90.43000031
MS,Covington County,28031,31.61599922,89.5759964
MS,DeSoto County,28033,34.85900116,90.01699829
MS,Forrest County,28035,31.16900063,89.29599762
MS,Franklin County,28037,31.46699905,90.89399719
MS,George County,28039,30.86499977,88.64800262
MS,Greene County,28041,31.21500015,88.6309967
MS,Grenada County,28043,33.78699875,89.82299805
MS,Hancock County,28045,30.43000031,89.51300049
MS,Harrison County,28047,30.4470005,89.09500122
MS,Hinds County,28049,32.30899811,90.39600372
MS,Holmes County,28051,33.10599899,90.05799866
MS,Humphreys County,28053,33.12799835,90.53299713
MS,Issaquena County,28055,32.79600143,90.94000244
MS,Itawamba County,28057,34.27399826,88.34999847
MS,Jackson County,28059,30.46999931,88.63700104
MS,Jasper County,28061,32.01100159,89.11799622
MS,Jefferson County,28063,31.74200058,91.02600098
MS,Jefferson Davis County,28065,31.58099937,89.78299713
MS,Jones County,28067,31.62700081,89.16899872
MS,Kemper County,28069,32.75,88.6309967
MS,Lafayette County,28071,34.35499954,89.48500061
MS,Lamar County,28073,31.21500015,89.5019989
MS,Lauderdale County,28075,32.40100098,88.65399933
MS,Lawrence County,28077,31.54700089,90.10299683
MS,Leake County,28079,32.75600052,89.52500153
MS,Lee County,28081,34.29199982,88.68199921
MS,Leflore County,28083,33.55799866,90.29199982
MS,Lincoln County,28085,31.52400017,90.49299622
MS,Lowndes County,28087,33.51800156,88.45899963
MS,Madison County,28089,32.64099884,90.09200287
MS,Marion County,28091,31.21500015,89.84600067
MS,Marshall County,28093,34.74399948,89.48500061
MS,Monroe County,28095,33.86800003,88.45899963
MS,Montgomery County,28097,33.48400116,89.58200073
MS,Neshoba County,28099,32.75600052,89.11799622
MS,Newton County,28101,32.40100098,89.11799622
MS,Noxubee County,28103,33.10599899,88.55599976
MS,Oktibbeha County,28105,33.42599869,88.8769989
MS,Panola County,28107,34.35499954,89.95999908
MS,Pearl River County,28109,30.7329998,89.59300232
MS,Perry County,28111,31.16900063,88.99199677
MS,Pike County,28113,31.17499924,90.40100098
MS,Pontotoc County,28115,34.22900009,89.03800201
MS,Prentiss County,28117,34.61199951,88.53399658
MS,Quitman County,28119,34.29199982,90.29199982
MS,Rankin County,28121,32.31499863,89.97699738
MS,Scott County,28123,32.42900085,89.5530014
MS,Sharkey County,28125,32.87599945,90.80799866
MS,Simpson County,28127,31.90200043,89.94300079
MS,Smith County,28129,32,89.52500153
MS,Stone County,28131,30.77899933,89.11199951
MS,Sunflower County,28133,33.6269989,90.60800171
MS,Tallahatchie County,28135,33.93099976,90.18900299
MS,Tate County,28137,34.66400146,89.94300079
MS,Tippah County,28139,34.79600143,88.90599823
MS,Tishomingo County,28141,34.72700119,88.23000336
MS,Tunica County,28143,34.64099884,90.38999939
MS,Union County,28145,34.48099899,88.99199677
MS,Walthall County,28147,31.17499924,90.04599762
MS,Warren County,28149,32.36600113,90.83699799
MS,Washington County,28151,33.26599884,90.95700073
MS,Wayne County,28153,31.66200066,88.69400024
MS,Webster County,28155,33.59799957,89.26100159
MS,Wilkinson County,28157,31.17499924,91.34700012
MS,Winston County,28159,33.10599899,89.06600189
MS,Yalobusha County,28161,34.02799988,89.72000122
MS,Yazoo County,28163,32.75600052,90.34400177
MO,Adair County,29001,40.19300079,92.60199738
MO,Andrew County,29003,39.97499847,94.82499695
MO,Atchison County,29005,40.42200089,95.47200012
MO,Audrain County,29007,39.20199966,91.86199951
MO,Barry County,29009,36.71500015,93.82800293
MO,Barton County,29011,37.5,94.34300232
MO,Bates County,29013,38.25600052,94.33200073
MO,Benton County,29015,38.29700089,93.29499817
MO,Bollinger County,29017,37.32300186,90.04000092
MO,Boone County,29019,38.94400024,92.33200073
MO,Buchanan County,29021,39.67699814,94.85299683
MO,Butler County,29023,36.70899963,90.41300201
MO,Caldwell County,29025,39.65399933,93.98200226
MO,Callaway County,29027,38.82899857,91.92500305
MO,Camden County,29029,38.03300095,92.73899841
MO,Cape Girardeau County,29031,37.36299896,89.65100098
MO,Carroll County,29033,39.40800095,93.43199921
MO,Carter County,29035,36.95600128,90.94000244
MO,Cass County,29037,38.64599991,94.33799744
MO,Cedar County,29039,37.73500061,93.84500122
MO,Chariton County,29041,39.46500015,92.98500061
MO,Christian County,29043,36.95600128,93.25499725
MO,Clark County,29045,40.4280014,91.68499756
MO,Clay County,29047,39.2820015,94.40599823
MO,Clinton County,29049,39.60300064,94.40100098
MO,Cole County,29051,38.53699875,92.21800232
MO,Cooper County,29053,38.86899948,92.77899933
MO,Crawford County,29055,37.95299911,91.31800079
MO,Dade County,29057,37.43099976,93.85099792
MO,Dallas County,29059,37.6609993,93.01999664
MO,Daviess County,29061,39.9640007,93.98799896
MO,DeKalb County,29063,39.89500046,94.40599823
MO,Dent County,29065,37.60300064,91.47899628
MO,Douglas County,29067,36.93299866,92.4980011
MO,Dunklin County,29069,36.31399918,90.16600037
MO,Franklin County,29071,38.45100021,91.0490036
MO,Gasconade County,29073,38.4280014,91.50700378
MO,Gentry County,29075,40.20999908,94.41200256
MO,Greene County,29077,37.25899887,93.34600067
MO,Grundy County,29079,40.11299896,93.56400299
MO,Harrison County,29081,40.35300064,94
MO,Henry County,29083,38.38800049,93.79299927
MO,Hickory County,29085,37.93600082,93.31800079
MO,Holt County,29087,40.07799911,95.27100372
MO,Howard County,29089,39.14500046,92.68199921
MO,Howell County,29091,36.77799988,91.88500214
MO,Iron County,29093,37.50600052,90.84300232
MO,Jackson County,29095,39.01800156,94.35500336
MO,Jasper County,29097,37.20800018,94.33200073
MO,Jefferson County,29099,38.26200104,90.51599884
MO,Johnson County,29101,38.74300003,93.80999756
MO,Knox County,29103,40.12400055,92.14900208
MO,Laclede County,29105,37.68299866,92.55000305
MO,Lafayette County,29107,39.10400009,93.79299927
MO,Lawrence County,29109,37.10499954,93.83300018
MO,Lewis County,29111,40.10100174,91.69599915
MO,Lincoln County,29113,39.04700089,90.96299744
MO,Linn County,29115,39.86600113,93.10600281
MO,Livingston County,29117,39.79199982,93.51300049
MO,McDonald County,29119,36.63499832,94.34300232
MO,Macon County,29121,39.82099915,92.57299805
MO,Madison County,29123,37.47700119,90.34400177
MO,Maries County,29125,38.15299988,91.91400146
MO,Marion County,29127,39.8030014,91.5759964
MO,Mercer County,29129,40.42200089,93.56999969
MO,Miller County,29131,38.22800064,92.44100189
MO,Mississippi County,29133,36.81800079,89.31300354
MO,Moniteau County,29135,38.67499924,92.6190033
MO,Monroe County,29137,39.5,92.01100159
MO,Montgomery County,29139,38.92100143,91.45600128
MO,Morgan County,29141,38.45100021,92.85399628
MO,New Madrid County,29143,36.60100174,89.64499664
MO,Newton County,29145,36.90399933,94.33799744
MO,Nodaway County,29147,40.35300064,94.89900208
MO,Oregon County,29149,36.69200134,91.39299774
MO,Osage County,29151,38.49700165,91.91999817
MO,Ozark County,29153,36.65200043,92.44100189
MO,Pemiscot County,29155,36.19400024,89.7539978
MO,Perry County,29157,37.7179985,89.83399963
MO,Pettis County,29159,38.72600174,93.28299713
MO,Phelps County,29161,37.87799835,91.77600098
MO,Pike County,29163,39.36800003,91.07700348
MO,Platte County,29165,39.34500122,94.85299683
MO,Polk County,29167,37.61999893,93.40399933
MO,Pulaski County,29169,37.81000137,92.21800232
MO,Putnam County,29171,40.4679985,93.02600098
MO,Ralls County,29173,39.5,91.44999695
MO,Randolph County,29175,39.42499924,92.5039978
MO,Ray County,29177,39.33399963,93.98200226
MO,Reynolds County,29179,37.31700134,90.97399902
MO,Ripley County,29181,36.65800095,90.84799957
MO,St. Charles County,29183,38.75500107,90.53900146
MO,St. Clair County,29185,38.02199936,93.78199768
MO,Ste. Genevieve County,29186,37.90100098,90.1780014
MO,St. Francois County,29187,37.86100006,90.37799835
MO,St. Louis County,29189,38.59400177,90.4240036
MO,Saline County,29195,39.15599823,93.1740036
MO,Schuyler County,29197,40.4679985,92.53299713
MO,Scotland County,29199,40.45100021,92.14900208
MO,Scott County,29201,37.0530014,89.53600311
MO,Shannon County,29203,37.15100098,91.33499908
MO,Shelby County,29205,39.77999878,92.06900024
MO,Stoddard County,29207,36.87599945,89.97699738
MO,Stone County,29209,36.75,93.45500183
MO,Sullivan County,29211,40.20999908,93.11100006
MO,Taney County,29213,36.65800095,93.03700256
MO,Texas County,29215,37.32799911,91.94799805
MO,Vernon County,29217,37.84999847,94.33799744
MO,Warren County,29219,38.77199936,91.18599701
MO,Washington County,29221,37.97000122,90.8710022
MO,Wayne County,29223,37.12200165,90.4469986
MO,Webster County,29225,37.27700043,92.8769989
MO,Worth County,29227,40.47900009,94.4240036
MO,Wright County,29229,37.27099991,92.47000122
MO,St. Louis city,29510,38.65200043,90.21800232
MT,Beaverhead County,30001,45.14899826,112.7070007
MT,Big Horn County,30003,45.51599884,107.4530029
MT,Blaine County,30005,48.36899948,108.8850021
MT,Broadwater County,30007,46.29499817,111.4229965
MT,Carbon County,30009,45.31499863,109.0220032
MT,Carter County,30011,45.56700134,104.5360031
MT,Cascade County,30013,47.26300049,111.3430023
MT,Chouteau County,30015,47.81900024,110.4720001
MT,Custer County,30017,46.32400131,105.4589996
MT,Daniels County,30019,48.7820015,105.5619965
MT,Dawson County,30021,47.32600021,104.9029999
MT,Deer Lodge County,30023,46.06600189,113.0390015
MT,Fallon County,30025,46.2840004,104.4729996
MT,Fergus County,30027,47.21699905,109.2630005
MT,Flathead County,30029,48.29999924,113.9960022
MT,Gallatin County,30031,45.33800125,111.2910004
MT,Garfield County,30033,47.40100098,107.0110016
MT,Glacier County,30035,48.65599823,113.125
MT,Golden Valley County,30037,46.39799881,109.2170029
MT,Granite County,30039,46.38700104,113.4459991
MT,Hill County,30041,48.56999969,110.1169968
MT,Jefferson County,30043,46.15800095,112.1159973
MT,Judith Basin County,30045,47.04600143,110.1969986
MT,Lake County,30047,47.4640007,114.1159973
MT,Lewis and Clark County,30049,47.18899918,112.322998
MT,Liberty County,30051,48.56399918,111.0739975
MT,Lincoln County,30053,48.50699997,115.3420029
MT,McCone County,30055,47.57799911,105.8079987
MT,Madison County,30057,45.2519989,112.0309982
MT,Meagher County,30059,46.5929985,110.9649963
MT,Mineral County,30061,47.10900116,115.1470032
MT,Missoula County,30063,47.11399841,114.0469971
MT,Musselshell County,30065,46.44400024,108.3919983
MT,Park County,30067,45.59600067,110.4209976
MT,Petroleum County,30069,47.16600037,108.2259979
MT,Phillips County,30071,48.22600174,108.0370026
MT,Pondera County,30073,48.23699951,112.3799973
MT,Powder River County,30075,45.38999939,105.6309967
MT,Powell County,30077,46.93099976,112.8840027
MT,Prairie County,30079,46.89699936,105.3440018
MT,Ravalli County,30081,46.11199951,114.0419998
MT,Richland County,30083,47.70999908,104.6389999
MT,Roosevelt County,30085,48.27700043,104.9430008
MT,Rosebud County,30087,46.01399994,106.987999
MT,Sanders County,30089,47.67599869,115.1190033
MT,Sheridan County,30091,48.69599915,104.5530014
MT,Silver Bow County,30093,45.90000153,112.6380005
MT,Stillwater County,30095,45.65299988,109.4520035
MT,Sweet Grass County,30097,45.69900131,109.8529968
MT,Teton County,30099,47.82500076,112.2139969
MT,Toole County,30101,48.61000061,111.7330017
MT,Treasure County,30103,46.17499924,107.3379974
MT,Valley County,30105,48.34600067,106.6100006
MT,Wheatland County,30107,46.46699905,109.8359985
MT,Wibaux County,30109,47.01699829,104.3239975
MT,Yellowstone County,30111,45.97999954,108.2149963
NE,Adams County,31001,40.52500153,98.50299835
NE,Antelope County,31003,42.17499924,98.06800079
NE,Arthur County,31005,41.56800079,101.6940002
NE,Banner County,31007,41.54499817,103.7109985
NE,Blaine County,31009,41.91199875,99.97499847
NE,Boone County,31011,41.70000076,98.06199646
NE,Box Butte County,31013,42.22100067,103.0690002
NE,Boyd County,31015,42.88000107,98.77799988
NE,Brown County,31017,42.4679985,99.93000031
NE,Buffalo County,31019,40.85800171,99.06999969
NE,Burt County,31021,41.86600113,96.3259964
NE,Butler County,31023,41.24700165,97.13400269
NE,Cass County,31025,40.92599869,96.13700104
NE,Cedar County,31027,42.60499954,97.2480011
NE,Chase County,31029,40.52500153,101.6940002
NE,Cherry County,31031,42.54199982,101.1210022
NE,Cheyenne County,31033,41.21900177,102.9950027
NE,Clay County,31035,40.52500153,98.05000305
NE,Colfax County,31037,41.56200027,97.08200073
NE,Cuming County,31039,41.91799927,96.78399658
NE,Custer County,31041,41.39099884,99.72899628
NE,Dakota County,31043,42.39899826,96.54299927
NE,Dawes County,31045,42.72000122,103.1380005
NE,Dawson County,31047,40.85800171,99.82099915
NE,Deuel County,31049,41.11000061,102.3359985
NE,Dixon County,31051,42.51399994,96.8239975
NE,Dodge County,31053,41.56800079,96.61799622
NE,Douglas County,31055,41.29299927,96.19400024
NE,Dundy County,31057,40.17599869,101.689003
NE,Fillmore County,31059,40.52500153,97.59799957
NE,Franklin County,31061,40.17599869,98.94999695
NE,Frontier County,31063,40.52500153,100.3769989
NE,Furnas County,31065,40.17599869,99.91200256
NE,Gage County,31067,40.26200104,96.68699646
NE,Garden County,31069,41.61399841,102.3300018
NE,Garfield County,31071,41.91799927,98.98999786
NE,Gosper County,31073,40.52500153,99.86699677
NE,Grant County,31075,41.91799927,101.7460022
NE,Greeley County,31077,41.56800079,98.51999664
NE,Hall County,31079,40.875,98.50299835
NE,Hamilton County,31081,40.93799973,98.05599976
NE,Harlan County,31083,40.17599869,99.40299988
NE,Hayes County,31085,40.52500153,101.0579987
NE,Hitchcock County,31087,40.17599869,101.0410004
NE,Holt County,31089,42.47299957,98.77799988
NE,Hooker County,31091,41.91799927,101.1330032
NE,Howard County,31093,41.21900177,98.51399994
NE,Jefferson County,31095,40.17599869,97.13899994
NE,Johnson County,31097,40.39400101,96.26300049
NE,Kearney County,31099,40.52000046,98.94999695
NE,Keith County,31101,41.20100021,101.6539993
NE,Keya Paha County,31103,42.85699844,99.72299957
NE,Kimball County,31105,41.19599915,103.7170029
NE,Knox County,31107,42.6570015,97.89600372
NE,Lancaster County,31109,40.78300095,96.68699646
NE,Lincoln County,31111,41.04700089,100.7429962
NE,Logan County,31113,41.56800079,100.4800034
NE,Loup County,31115,41.91799927,99.45400238
NE,McPherson County,31117,41.56800079,101.0579987
NE,Madison County,31119,41.91799927,97.60299683
NE,Merrick County,31121,41.13299942,97.94100189
NE,Morrill County,31123,41.72299957,103.0009995
NE,Nance County,31125,41.45899963,97.99900055
NE,Nemaha County,31127,40.40499878,95.80999756
NE,Nuckolls County,31129,40.17599869,98.04499817
NE,Otoe County,31131,40.65100098,96.08499908
NE,Pawnee County,31133,40.13000107,96.23400116
NE,Perkins County,31135,40.85200119,101.6490021
NE,Phelps County,31137,40.52000046,99.40799713
NE,Pierce County,31139,42.26100159,97.59799957
NE,Platte County,31141,41.53900146,97.54000092
NE,Polk County,31143,41.21900177,97.59799957
NE,Red Willow County,31145,40.17599869,100.473999
NE,Richardson County,31147,40.13000107,95.66100311
NE,Rock County,31149,42.44499969,99.45400238
NE,Saline County,31151,40.52500153,97.13899994
NE,Sarpy County,31153,41.11500168,96.10199738
NE,Saunders County,31155,41.23600006,96.61199951
NE,Scotts Bluff County,31157,41.84899902,103.7050018
NE,Seward County,31159,40.875,97.13899994
NE,Sheridan County,31161,42.5019989,102.3990021
NE,Sherman County,31163,41.21900177,98.97299957
NE,Sioux County,31165,42.5019989,103.7279968
NE,Stanton County,31167,41.91799927,97.19100189
NE,Thayer County,31169,40.17599869,97.59200287
NE,Thomas County,31171,41.91199875,100.5540009
NE,Thurston County,31173,42.14699936,96.54299927
NE,Valley County,31175,41.56800079,98.97899628
NE,Washington County,31177,41.53900146,96.18800354
NE,Wayne County,31179,42.22100067,97.09400177
NE,Webster County,31181,40.17599869,98.49700165
NE,Wheeler County,31183,41.91199875,98.52600098
NE,York County,31185,40.875,97.59799957
NV,Churchill County,32001,39.54000092,118.3730011
NV,Clark County,32003,35.92399979,114.9759979
NV,Douglas County,32005,38.82400131,119.6569977
NV,Elko County,32007,41.05799866,115.526001
NV,Esmeralda County,32009,37.72399902,117.7939987
NV,Eureka County,32011,40.07799911,116.2129974
NV,Humboldt County,32013,41.26399994,118.1610031
NV,Lander County,32015,40.04999924,117.1809998
NV,Lincoln County,32017,37.75799942,114.9700012
NV,Lyon County,32019,39.01800156,119.2269974
NV,Mineral County,32021,38.48600006,118.4250031
NV,Nye County,32023,37.58000183,116.4309998
NV,Pershing County,32027,40.47900009,118.3040009
NV,Storey County,32029,39.43700027,119.4960022
NV,Washoe County,32031,40.58300018,119.598999
NV,White Pine County,32033,39.40200043,114.9759979
NV,Carson City,32510,39.16699982,119.7770004
NH,Belknap County,33001,43.52199936,71.44799805
NH,Carroll County,33003,43.91199875,71.24700165
NH,Cheshire County,33005,42.93700027,72.19300079
NH,Coos County,33007,44.73699951,71.38500214
NH,Grafton County,33009,43.96900177,71.87200165
NH,Hillsborough County,33011,42.94900131,71.64299774
NH,Merrimack County,33013,43.28699875,71.62000275
NH,Rockingham County,33015,43.00600052,71.0530014
NH,Strafford County,33017,43.33300018,71.03500366
NH,Sullivan County,33019,43.36100006,72.19300079
NJ,Atlantic County,34001,39.51699829,74.65599823
NJ,Bergen County,34003,40.96099854,74.06099701
NJ,Burlington County,34005,39.84899902,74.73699951
NJ,Camden County,34007,39.79800034,74.93699646
NJ,Cape May County,34009,39.2480011,74.72499847
NJ,Cumberland County,34011,39.37400055,75.13200378
NJ,Essex County,34013,40.78300095,74.2440033
NJ,Gloucester County,34015,39.70000076,75.16100311
NJ,Hudson County,34017,40.75999832,74.06600189
NJ,Hunterdon County,34019,40.56499863,74.95999908
NJ,Mercer County,34021,40.27899933,74.71399689
NJ,Middlesex County,34023,40.4280014,74.41000366
NJ,Monmouth County,34025,40.26200104,74.31300354
NJ,Morris County,34027,40.86899948,74.58200073
NJ,Ocean County,34029,39.83200073,74.29499817
NJ,Passaic County,34031,41.01200104,74.31800079
NJ,Salem County,34033,39.57400131,75.30400085
NJ,Somerset County,34035,40.54800034,74.5759964
NJ,Sussex County,34037,41.13299942,74.67900085
NJ,Union County,34039,40.6629982,74.3010025
NJ,Warren County,34041,40.84000015,74.98300171
NM,Bernalillo County,35001,35.04199982,106.7190018
NM,Catron County,35003,33.88999939,108.3809967
NM,Chaves County,35005,33.30599976,104.4100037
NM,Cibola County,35006,35.48300171,108.1750031
NM,Colfax County,35007,36.60599899,104.6849976
NM,Curry County,35009,34.63000107,103.3899994
NM,De Baca County,35011,34.42900085,104.4219971
NM,Dona Ana County,35013,32.41799927,106.8170013
NM,Eddy County,35015,32.48099899,104.2839966
NM,Grant County,35017,32.5379982,108.3290024
NM,Guadalupe County,35019,34.74399948,104.7200012
NM,Harding County,35021,35.80400085,103.9059982
NM,Hidalgo County,35023,32.05699921,108.6269989
NM,Lea County,35025,32.78499985,103.4300003
NM,Lincoln County,35027,33.74200058,105.6309967
NM,Los Alamos County,35028,35.86100006,106.2149963
NM,Luna County,35029,32.19499969,107.7559967
NM,McKinley County,35031,35.48300171,108.1750031
NM,Mora County,35033,36.00999832,105.0459976
NM,Otero County,35035,32.69300079,105.612999
NM,Quay County,35037,35.17399979,103.5849991
NM,Rio Arriba County,35039,36.46300125,106.5759964
NM,Roosevelt County,35041,34.08499908,103.4929962
NM,Sandoval County,35043,35.7179985,106.9369965
NM,San Juan County,35045,36.49700165,108.2320023
NM,San Miguel County,35047,35.45500183,104.6790009
NM,Santa Fe County,35049,35.50600052,105.9800034
NM,Sierra County,35051,33.04199982,107.1719971
NM,Socorro County,35053,34.02799988,106.8219986
NM,Taos County,35055,36.50299835,105.612999
NM,Torrance County,35057,34.65299988,105.8539963
NM,Union County,35059,36.37099838,103.5049973
NM,Valencia County,35061,34.89300156,107.7279968
NY,Albany County,36001,42.61700058,73.96299744
NY,Allegany County,36003,42.26100159,78.01399994
NY,Bronx County,36005,40.85800171,73.86000061
NY,Broome County,36007,42.20399857,75.75099945
NY,Cattaraugus County,36009,42.26699829,78.68399811
NY,Cayuga County,36011,43.01800156,76.4960022
NY,Chautauqua County,36013,42.2840004,79.41200256
NY,Chemung County,36015,42.14099884,76.75299835
NY,Chenango County,36017,42.4679985,75.58999634
NY,Clinton County,36019,44.7140007,73.72299957
NY,Columbia County,36021,42.24399948,73.64199829
NY,Cortland County,36023,42.59899902,76.0719986
NY,Delaware County,36025,42.18099976,74.93099976
NY,Dutchess County,36027,41.75699997,73.73400116
NY,Erie County,36029,42.81700134,78.7990036
NY,Essex County,36031,44.14099884,73.83100128
NY,Franklin County,36033,44.54800034,74.31800079
NY,Fulton County,36035,43.13199997,74.42700195
NY,Genesee County,36037,42.99499893,78.18599701
NY,Greene County,36039,42.29600143,74.11799622
NY,Hamilton County,36041,43.68799973,74.45600128
NY,Herkimer County,36043,43.48199844,74.95400238
NY,Jefferson County,36045,44.0379982,75.94000244
NY,Kings County,36047,40.6629982,73.90000153
NY,Lewis County,36049,43.8429985,75.44100189
NY,Livingston County,36051,42.73099899,77.76200104
NY,Madison County,36053,42.95500183,75.6190033
NY,Monroe County,36055,43.15499878,77.68199921
NY,Montgomery County,36057,42.91999817,74.42700195
NY,Nassau County,36059,40.73699951,73.59600067
NY,New York County,36061,40.78900146,73.96900177
NY,Niagara County,36063,43.2179985,78.74199677
NY,Oneida County,36065,43.24100113,75.49299622
NY,Onondaga County,36067,43.00099945,76.18599701
NY,Ontario County,36069,42.80599976,77.27500153
NY,Orange County,36071,41.36800003,74.35299683
NY,Orleans County,36073,43.24700165,78.23200226
NY,Oswego County,36075,43.42499924,76.18599701
NY,Otsego County,36077,42.59899902,75.02899933
NY,Putnam County,36079,41.42499924,73.75700378
NY,Queens County,36081,40.68600082,73.84899902
NY,Rensselaer County,36083,42.70299911,73.52200317
NY,Richmond County,36085,40.57099915,74.20999908
NY,Rockland County,36087,41.1609993,74.0719986
NY,St. Lawrence County,36089,44.54199982,75.18399811
NY,Saratoga County,36091,43.08100128,73.87200165
NY,Schenectady County,36093,42.83399963,74.03800201
NY,Schoharie County,36095,42.59400177,74.44400024
NY,Schuyler County,36097,42.40999985,76.86199951
NY,Seneca County,36099,42.78300095,76.77600098
NY,Steuben County,36101,42.29000092,77.35500336
NY,Suffolk County,36103,40.94900131,72.73100281
NY,Sullivan County,36105,41.72299957,74.76000214
NY,Tioga County,36107,42.20399857,76.32900238
NY,Tompkins County,36109,42.45000076,76.47299957
NY,Ulster County,36111,41.87799835,74.34700012
NY,Warren County,36113,43.55599976,73.79699707
NY,Washington County,36115,43.3730011,73.44799805
NY,Wayne County,36117,43.1780014,77.04599762
NY,Westchester County,36119,41.1269989,73.76300049
NY,Wyoming County,36121,42.69100189,78.20899963
NY,Yates County,36123,42.61100006,77.13700104
NC,Alamance County,37001,36.04499817,79.39499664
NC,Alexander County,37003,35.9129982,81.18199921
NC,Alleghany County,37005,36.46900177,81.125
NC,Anson County,37007,35.0019989,80.09400177
NC,Ashe County,37009,36.4109993,81.48600006
NC,Avery County,37011,36.09600067,81.94400024
NC,Beaufort County,37013,35.48899841,76.83899689
NC,Bertie County,37015,36.05599976,77.02300262
NC,Bladen County,37017,34.63000107,78.58100128
NC,Brunswick County,37019,34.10200119,78.29499817
NC,Buncombe County,37021,35.62099838,82.52899933
NC,Burke County,37023,35.76399994,81.65200043
NC,Cabarrus County,37025,35.34600067,80.54100037
NC,Caldwell County,37027,35.9469986,81.5719986
NC,Camden County,37029,36.42300034,76.27200317
NC,Carteret County,37031,34.83599854,76.63899994
NC,Caswell County,37033,36.39400101,79.33799744
NC,Catawba County,37035,35.67200089,81.24500275
NC,Chatham County,37037,35.69499969,79.22899628
NC,Cherokee County,37039,35.13999939,84.01300049
NC,Chowan County,37041,36.21099854,76.54699707
NC,Clay County,37043,35.07099915,83.7440033
NC,Cleveland County,37045,35.36899948,81.54299927
NC,Columbus County,37047,34.21099854,78.61599731
NC,Craven County,37049,35.11700058,77.06900024
NC,Cumberland County,37051,35.04199982,78.7990036
NC,Currituck County,37053,36.40000153,76.0719986
NC,Dare County,37055,35.68399811,75.84799957
NC,Davidson County,37057,35.75799942,80.26599884
NC,Davie County,37059,35.89599991,80.55200195
NC,Duplin County,37061,34.95600128,77.92199707
NC,Durham County,37063,36.05099869,78.88500214
NC,Edgecombe County,37065,35.9129982,77.58999634
NC,Forsyth County,37067,36.11399841,80.26599884
NC,Franklin County,37069,36.03900146,78.27799988
NC,Gaston County,37071,35.28300095,81.20500183
NC,Gates County,37073,36.42300034,76.68499756
NC,Graham County,37075,35.35699844,83.85199738
NC,Granville County,37077,36.27999878,78.63300323
NC,Greene County,37079,35.5,77.65299988
NC,Guilford County,37081,36.07899857,79.79000092
NC,Halifax County,37083,36.25699997,77.64700317
NC,Harnett County,37085,35.38600159,78.85600281
NC,Haywood County,37087,35.54100037,82.99900055
NC,Henderson County,37089,35.30599976,82.5
NC,Hertford County,37091,36.39400101,76.95400238
NC,Hoke County,37093,35.00799942,79.2460022
NC,Hyde County,37095,35.38600159,76.25499725
NC,Iredell County,37097,35.78099823,80.90200043
NC,Jackson County,37099,35.25999832,83.1309967
NC,Johnston County,37101,35.55199814,78.38600159
NC,Jones County,37103,35.0019989,77.38899994
NC,Lee County,37105,35.45999908,79.16000366
NC,Lenoir County,37107,35.22000122,77.61299896
NC,Lincoln County,37109,35.48300171,81.23999786
NC,McDowell County,37111,35.74100113,82.04799652
NC,Macon County,37113,35.16199875,83.42299652
NC,Madison County,37115,35.85599899,82.68399811
NC,Martin County,37117,35.88999939,77.08000183
NC,Mecklenburg County,37119,35.25999832,80.80400085
NC,Mitchell County,37121,35.98799896,82.1969986
NC,Montgomery County,37123,35.32899857,79.89900208
NC,Moore County,37125,35.28300095,79.42900085
NC,Nash County,37127,35.96500015,77.97399902
NC,New Hanover County,37129,34.21699905,77.88800049
NC,Northampton County,37131,36.35400009,77.53299713
NC,Onslow County,37133,34.7159996,77.40699768
NC,Orange County,37135,36.05099869,79.10299683
NC,Pamlico County,37137,35.17399979,76.77600098
NC,Pasquotank County,37139,36.35400009,76.35199738
NC,Pender County,37141,34.50899887,77.89399719
NC,Perquimans County,37143,36.22800064,76.42099762
NC,Person County,37145,36.38899994,78.97699738
NC,Pitt County,37147,35.58100128,77.43499756
NC,Polk County,37149,35.2879982,82.16200256
NC,Randolph County,37151,35.7120018,79.80200195
NC,Richmond County,37153,34.98500061,79.76699829
NC,Robeson County,37155,34.62400055,79.16600037
NC,Rockingham County,37157,36.39400101,79.77300262
NC,Rowan County,37159,35.6780014,80.45500183
NC,Rutherford County,37161,35.38000107,81.98500061
NC,Sampson County,37163,34.93299866,78.36399841
NC,Scotland County,37165,34.83599854,79.52100372
NC,Stanly County,37167,35.32300186,80.28900146
NC,Stokes County,37169,36.40599823,80.23699951
NC,Surry County,37171,36.40000153,80.70700073
NC,Swain County,37173,35.48899841,83.5719986
NC,Transylvania County,37175,35.22499847,82.79199982
NC,Tyrrell County,37177,35.75799942,76.22599792
NC,Union County,37179,35.01300049,80.55799866
NC,Vance County,37181,36.36000061,78.40399933
NC,Wake County,37183,35.79299927,78.58699799
NC,Warren County,37185,36.37099838,78.11100006
NC,Washington County,37187,35.81000137,76.60500336
NC,Watauga County,37189,36.25099945,81.69799805
NC,Wayne County,37191,35.38000107,78.05400085
NC,Wilkes County,37193,36.20000076,81.19999695
NC,Wilson County,37195,35.7179985,77.92199707
NC,Yadkin County,37197,36.14199829,80.65499878
NC,Yancey County,37199,35.88999939,82.31700134
ND,Adams County,38001,46.11199951,102.4970016
ND,Barnes County,38003,46.93700027,98.07299805
ND,Benson County,38005,48.10599899,99.16799927
ND,Billings County,38007,46.97700119,103.3499985
ND,Bottineau County,38009,48.77000046,100.8180008
ND,Bowman County,38011,46.11199951,103.5220032
ND,Burke County,38013,48.77000046,102.4789963
ND,Burleigh County,38015,46.98300171,100.5199966
ND,Cass County,38017,46.93700027,97.2539978
ND,Cavalier County,38019,48.77000046,98.46299744
ND,Dickey County,38021,46.11199951,98.50299835
ND,Divide County,38023,48.81600189,103.4649963
ND,Dunn County,38025,47.40100098,102.6230011
ND,Eddy County,38027,47.7159996,98.89800262
ND,Emmons County,38029,46.28900146,100.2679977
ND,Foster County,38031,47.45800018,98.8809967
ND,Golden Valley County,38033,46.93700027,103.8259964
ND,Grand Forks County,38035,47.93399811,97.39099884
ND,Grant County,38037,46.375,101.5630035
ND,Griggs County,38039,47.45800018,98.22799683
ND,Hettinger County,38041,46.41500092,102.461998
ND,Kidder County,38043,46.97700119,99.78099823
ND,LaMoure County,38045,46.45500183,98.53700256
ND,Logan County,38047,46.45500183,99.47699738
ND,McHenry County,38049,48.1969986,100.6289978
ND,McIntosh County,38051,46.11199951,99.44300079
ND,McKenzie County,38053,47.72700119,103.3440018
ND,McLean County,38055,47.50400162,101.4820023
ND,Mercer County,38057,47.27500153,101.7289963
ND,Morton County,38059,46.63299942,101.3450012
ND,Mountrail County,38061,48.15100098,102.3759995
ND,Nelson County,38063,47.93399811,98.20500183
ND,Oliver County,38065,47.11999893,101.3509979
ND,Pembina County,38067,48.77000046,97.54000092
ND,Pierce County,38069,48.1969986,99.88400269
ND,Ramsey County,38071,48.23199844,98.7440033
ND,Ransom County,38073,46.45500183,97.65499878
ND,Renville County,38075,48.72999954,101.5400009
ND,Richland County,38077,46.2840004,96.92199707
ND,Rolette County,38079,48.77000046,99.83799744
ND,Sargent County,38081,46.10599899,97.61499786
ND,Sheridan County,38083,47.59000015,100.3539963
ND,Sioux County,38085,46.18600082,101.2529984
ND,Slope County,38087,46.45500183,103.4820023
ND,Stark County,38089,46.8219986,102.663002
ND,Steele County,38091,47.45800018,97.71800232
ND,Stutsman County,38093,46.97700119,98.96099854
ND,Towner County,38095,48.68399811,99.2480011
ND,Traill County,38097,47.45199966,97.15100098
ND,Walsh County,38099,48.36899948,97.72399902
ND,Ward County,38101,48.32899857,101.6029968
ND,Wells County,38103,47.58399963,99.66600037
ND,Williams County,38105,48.31800079,103.435997
OH,Adams County,39001,38.82400131,83.48600006
OH,Allen County,39003,40.78300095,84.13899994
OH,Ashland County,39005,40.81200027,82.27700043
OH,Ashtabula County,39007,41.74000168,80.75800323
OH,Athens County,39009,39.36800003,82.01300049
OH,Auglaize County,39011,40.52000046,84.16799927
OH,Belmont County,39013,40.00999832,80.97000122
OH,Brown County,39015,38.94400024,83.86399841
OH,Butler County,39017,39.44200134,84.58000183
OH,Carroll County,39019,40.57699966,81.09100342
OH,Champaign County,39021,40.14099884,83.77200317
OH,Clark County,39023,39.9070015,83.78399658
OH,Clermont County,39025,39.01800156,84.15599823
OH,Clinton County,39027,39.40800095,83.8010025
OH,Columbiana County,39029,40.74300003,80.80400085
OH,Coshocton County,39031,40.30199814,81.91000366
OH,Crawford County,39033,40.85200119,82.91899872
OH,Cuyahoga County,39035,41.45399857,81.68099976
OH,Darke County,39037,40.13600159,84.62000275
OH,Defiance County,39039,41.29899979,84.51699829
OH,Delaware County,39041,40.28499985,82.99900055
OH,Erie County,39043,41.43600082,82.6210022
OH,Fairfield County,39045,39.74599838,82.59799957
OH,Fayette County,39047,39.54600143,83.46299744
OH,Franklin County,39049,39.97000122,83.0039978
OH,Fulton County,39051,41.60300064,84.13899994
OH,Gallia County,39053,38.80599976,82.33999634
OH,Geauga County,39055,41.5340004,81.19999695
OH,Greene County,39057,39.70000076,83.8809967
OH,Guernsey County,39059,40.03300095,81.46900177
OH,Hamilton County,39061,39.16199875,84.54000092
OH,Hancock County,39063,40.99499893,83.65200043
OH,Hardin County,39065,40.6629982,83.64600372
OH,Harrison County,39067,40.29600143,81.10800171
OH,Henry County,39069,41.32699966,84.11000061
OH,Highland County,39071,39.20199966,83.61199951
OH,Hocking County,39073,39.51100159,82.45400238
OH,Holmes County,39075,40.55400085,81.93299866
OH,Huron County,39077,41.13800049,82.58599854
OH,Jackson County,39079,39.02399826,82.61499786
OH,Jefferson County,39081,40.37599945,80.77600098
OH,Knox County,39083,40.40499878,82.46600342
OH,Lake County,39085,41.71099854,81.24500275
OH,Lawrence County,39087,38.62900162,82.55200195
OH,Licking County,39089,40.09600067,82.48300171
OH,Logan County,39091,40.38199997,83.76599884
OH,Lorain County,39093,41.2820015,82.11100006
OH,Lucas County,39095,41.57400131,83.52600098
OH,Madison County,39097,39.90100098,83.4280014
OH,Mahoning County,39099,41.01800156,80.80400085
OH,Marion County,39101,40.57099915,83.13600159
OH,Medina County,39103,41.13299942,81.92700195
OH,Meigs County,39105,39.04100037,82.03600311
OH,Mercer County,39107,40.54299927,84.62000275
OH,Miami County,39109,40.0379982,84.22499847
OH,Monroe County,39111,39.70600128,81.0510025
OH,Montgomery County,39113,39.7519989,84.27100372
OH,Morgan County,39115,39.60900116,81.83000183
OH,Morrow County,39117,40.53099823,82.82099915
OH,Muskingum County,39119,39.95800018,81.96199799
OH,Noble County,39121,39.76900101,81.46299744
OH,Ottawa County,39123,41.58499908,83.10199738
OH,Paulding County,39125,41.12099838,84.5739975
OH,Perry County,39127,39.73500061,82.2539978
OH,Pickaway County,39129,39.63700104,82.99900055
OH,Pike County,39131,39.06999969,83.08499908
OH,Portage County,39133,41.16699982,81.19999695
OH,Preble County,39135,39.74000168,84.64900208
OH,Putnam County,39137,41.01200104,84.13899994
OH,Richland County,39139,40.77199936,82.53500366
OH,Ross County,39141,39.3390007,83.06199646
OH,Sandusky County,39143,41.37900162,83.1309967
OH,Scioto County,39145,38.79499817,82.95899963
OH,Seneca County,39147,41.12099838,83.125
OH,Shelby County,39149,40.33100128,84.21900177
OH,Stark County,39151,40.81200027,81.36599731
OH,Summit County,39153,41.13299942,81.53800201
OH,Trumbull County,39155,41.31600189,80.75800323
OH,Tuscarawas County,39157,40.43399811,81.48600006
OH,Union County,39159,40.30799866,83.36000061
OH,Van Wert County,39161,40.83499908,84.5739975
OH,Vinton County,39163,39.20800018,82.51200104
OH,Warren County,39165,39.41999817,84.17299652
OH,Washington County,39167,39.40800095,81.44000244
OH,Wayne County,39169,40.82899857,81.88700104
OH,Williams County,39171,41.56800079,84.5739975
OH,Wood County,39173,41.39099884,83.64600372
OH,Wyandot County,39175,40.84000015,83.31400299
OK,Adair County,40001,35.90200043,94.64099884
OK,Alfalfa County,40003,36.73199844,98.32499695
OK,Atoka County,40005,34.41799927,96.03900146
OK,Beaver County,40007,36.75,100.4800034
OK,Beckham County,40009,35.27099991,99.6780014
OK,Blaine County,40011,35.85599899,98.42299652
OK,Bryan County,40013,33.94200134,96.17099762
OK,Caddo County,40015,35.20299911,98.36000061
OK,Canadian County,40017,35.52899933,97.99299622
OK,Carter County,40019,34.2859993,97.2480011
